{"updated_at":"2026-05-04T19:12:34.083551+10:00","station_count":409,"fuel_types":["U91","E10","U95","U98","DL","PDL","E85","LPG"],"fuel_labels":{"U91":"Unleaded 91","E10":"E10 Unleaded","U95":"Premium 95","U98":"Premium 98","DL":"Diesel","PDL":"Premium Diesel","E85":"Ethanol E85","LPG":"LPG"},"stations":[{"code":"20000","name":"INFINITY FUELS","brand":"Infinity","address":"188 HIGH ST, WAUCHOPE NSW 2446","suburb":"","postcode":"","state":"NSW","lat":-31.464962,"lng":152.722328,"prices":{"DL":2.395,"U95":1.945,"U98":2.035,"U91":1.815}},{"code":"20001","name":"Shell Roadhouse Truck Stop","brand":"Shell","address":"890 FREEMANS DR, FREEMANS WATERHOLE NSW 2323","suburb":"","postcode":"","state":"NSW","lat":-32.985343,"lng":151.487075,"prices":{"DL":2.599,"E10":1.829,"U98":2.079,"PDL":2.599,"U91":1.849}},{"code":"20003","name":"Ampol Neath","brand":"Ampol","address":"133 CESSNOCK RD, NEATH NSW 2326","suburb":"","postcode":"","state":"NSW","lat":-32.827006,"lng":151.40701,"prices":{"E10":1.939,"U95":2.099,"U98":2.199,"PDL":2.549,"U91":1.959}},{"code":"20007","name":"PEARL ENERGY ANNANGROVE","brand":"Pearl Energy","address":"169 ANNANGROVE RD, ANNANGROVE NSW 2156","suburb":"","postcode":"","state":"NSW","lat":-33.671068,"lng":150.956254,"prices":{"E10":1.735,"U98":1.995,"PDL":2.405,"U91":1.755}},{"code":"20009","name":"Tumut Fuels","brand":"Independent","address":"35 WARATAH ST, TUMUT NSW 2720","suburb":"","postcode":"","state":"NSW","lat":-35.301227,"lng":148.206244,"prices":{"DL":2.509}},{"code":"20010","name":"Llangothlin Service Station","brand":"Independent","address":"5232 NEW ENGLAND HWY, LLANGOTHLIN NSW 2365","suburb":"","postcode":"","state":"NSW","lat":-30.128924,"lng":151.685002,"prices":{"DL":2.499,"U95":2.199,"U91":1.99}},{"code":"20011","name":"AMPOL YETHOLME","brand":"Ampol","address":"SERVICE STATION 3529 GREAT WESTERN HWY, YETHOLME NSW 2795","suburb":"","postcode":"","state":"NSW","lat":-33.44684,"lng":149.829074,"prices":{"DL":2.469,"E10":1.899,"U95":2.059,"U91":1.919}},{"code":"20015","name":"BP WERRIS CREEK","brand":"BP","address":"18 SINGLE ST, WERRIS CREEK NSW 2341","suburb":"","postcode":"","state":"NSW","lat":-31.344429,"lng":150.647687,"prices":{"DL":2.359,"E10":1.895,"U98":2.209,"U91":1.899}},{"code":"20016","name":"BP KELSO","brand":"BP","address":"63 SYDNEY RD, KELSO NSW 2795","suburb":"","postcode":"","state":"NSW","lat":-33.419261,"lng":149.60764,"prices":{"DL":2.385,"E10":2.179,"U98":2.379,"U91":2.199}},{"code":"20017","name":"Evans Petroleum Bombala","brand":"BP","address":"5 Rosemeath Road, Bombala NSW 2632","suburb":"","postcode":"","state":"NSW","lat":-36.92677,"lng":149.2289,"prices":{"DL":2.599}},{"code":"20018","name":"Pitstop Garage Geurie","brand":"Independent","address":"61 BUCKENBAH ST, GEURIE NSW 2818","suburb":"","postcode":"","state":"NSW","lat":-32.397791,"lng":148.829098,"prices":{"DL":2.399,"U95":1.969,"U91":1.869}},{"code":"20020","name":"Shell Narrabri Truck Stop","brand":"Shell","address":"SHELL SERVICE STATION 11553 NEWELL HWY, NARRABRI NSW 2390","suburb":"","postcode":"","state":"NSW","lat":-30.348586,"lng":149.75737,"prices":{"DL":2.489,"E10":2.059,"U98":2.269,"PDL":2.539,"U91":2.079}},{"code":"20021","name":"Speedway Wenty","brand":"Speedway","address":"55-57 STATION ST, WENTWORTHVILLE NSW 2145","suburb":"","postcode":"","state":"NSW","lat":-33.809174,"lng":150.97135,"prices":{"DL":2.385,"E10":1.765,"U98":1.985,"U91":1.785}},{"code":"20023","name":"Trangie Inland Petroleum","brand":"Inland Petroleum","address":"76 NARROMINE ST, TRANGIE NSW 2823","suburb":"","postcode":"","state":"NSW","lat":-32.032359,"lng":147.985639,"prices":{"DL":2.669,"U95":2.089,"U91":1.949}},{"code":"20024","name":"Mullaley Roadhouse","brand":"Independent","address":"CARAVAN PARK 11530 BLACK STUMP WAY, MULLALEY NSW 2379","suburb":"","postcode":"","state":"NSW","lat":-31.100689,"lng":149.900723,"prices":{"DL":3.2,"U98":2.41,"U91":2.41}},{"code":"20025","name":"Metro Ashmont- Unmanned","brand":"Metro Fuel","address":"47-49 TOBRUK ST, ASHMONT NSW 2650","suburb":"","postcode":"","state":"NSW","lat":-35.125168,"lng":147.329907,"prices":{"DL":2.879,"U98":2.339,"PDL":2.879,"U91":2.069}},{"code":"20027","name":"Caltex Weston","brand":"Caltex","address":"109 CESSNOCK RD, WESTON NSW 2326","suburb":"","postcode":"","state":"NSW","lat":-32.814225,"lng":151.456103,"prices":{"U98":2.199,"PDL":2.549,"U91":1.959}},{"code":"20028","name":"Pearl Energy Sturt Hwy","brand":"Pearl Energy","address":"106 EDWARD ST, WAGGA WAGGA NSW 2650","suburb":"","postcode":"","state":"NSW","lat":-35.119107,"lng":147.368241,"prices":{"E10":1.799,"U98":2.039,"PDL":2.389,"U91":1.819}},{"code":"20029","name":"Mobil Griffith","brand":"Mobil","address":"81 BANNA AV, GRIFFITH NSW 2680","suburb":"","postcode":"","state":"NSW","lat":-34.288506,"lng":146.054109,"prices":{"U98":2.099,"PDL":2.549,"U91":1.899}},{"code":"20030","name":"Ampol Breeze South Nowra","brand":"Ampol Breeze","address":"6 TRIM ST, SOUTH NOWRA NSW 2541","suburb":"","postcode":"","state":"NSW","lat":-34.913752,"lng":150.584956,"prices":{"DL":2.425,"U95":1.979,"U98":2.059,"PDL":2.455,"U91":1.819}},{"code":"20031","name":"Metro Petroleum Redhead","brand":"Metro Fuel","address":"100 COLLIER ST, REDHEAD NSW 2290","suburb":"","postcode":"","state":"NSW","lat":-33.00878,"lng":151.710266,"prices":{"U95":2.109,"U98":2.269,"PDL":2.499,"U91":1.899}},{"code":"20032","name":"Metro Charlestown","brand":"Metro Fuel","address":"132-138 PACIFIC HWY, CHARLESTOWN NSW 2290","suburb":"","postcode":"","state":"NSW","lat":-32.964946,"lng":151.695211,"prices":{"E10":1.799,"U95":1.969,"U98":2.059,"PDL":2.439,"U91":1.839}},{"code":"20033","name":"MEDCO PETROLEUM ROSELANDS","brand":"Independent","address":"218 KING GEORGES RD, ROSELANDS NSW 2196","suburb":"","postcode":"","state":"NSW","lat":-33.933042,"lng":151.073492,"prices":{"DL":2.337,"E10":1.747,"U95":1.897,"U98":1.987,"U91":1.767}},{"code":"20034","name":"Astron Turvey Park","brand":"ASTRON","address":"31 BOURKE ST, TURVEY PARK NSW 2650","suburb":"","postcode":"","state":"NSW","lat":-35.126291,"lng":147.354748,"prices":{"DL":2.388,"E10":1.859,"LPG":1.119,"U98":2.109,"U91":1.889}},{"code":"20036","name":"PKs Olde General Store","brand":"Independent","address":"73 ALLANDALE RD, CESSNOCK NSW 2325","suburb":"","postcode":"","state":"NSW","lat":-32.824523,"lng":151.352362,"prices":{"DL":2.459,"U95":1.965,"U98":2.065,"U91":1.835}},{"code":"20037","name":"United Tomingley","brand":"United","address":"7 MERILBA ST, TOMINGLEY NSW 2869","suburb":"","postcode":"","state":"NSW","lat":-32.571394,"lng":148.221609,"prices":{"DL":2.355,"E10":1.795,"U95":1.955,"U98":2.105,"PDL":2.375,"U91":1.815}},{"code":"20041","name":"Tambar Springs General Store","brand":"Independent","address":"76 TAMBAR RD, TAMBAR SPRINGS NSW 2381","suburb":"","postcode":"","state":"NSW","lat":-31.34602,"lng":149.82863,"prices":{"DL":2.989,"U91":2.429}},{"code":"20042","name":"Caltex Village Grocer Warrawong","brand":"Caltex","address":"42-46 KING ST, WARRAWONG NSW 2502","suburb":"","postcode":"","state":"NSW","lat":-34.483771,"lng":150.887052,"prices":{"E10":1.779,"LPG":1.139,"U98":2.069,"PDL":2.459,"U91":1.799}},{"code":"20043","name":"Mobil Fuel Bodalla","brand":"Mobil","address":"122 PRINCES HWY, BODALLA NSW 2545","suburb":"","postcode":"","state":"NSW","lat":-36.093849,"lng":150.05233,"prices":{"DL":2.419,"U91":1.829}},{"code":"20044","name":"Mendooran Fuels","brand":"Independent","address":"33 BANDULLA ST, MENDOORAN NSW 2842","suburb":"","postcode":"","state":"NSW","lat":-31.822098,"lng":149.119521,"prices":{"DL":2.399,"U98":2.079,"U91":1.859}},{"code":"20045","name":"Budget petrol","brand":"Budget","address":"275 BAY ST, BRIGHTON-LE-SANDS NSW 2216","suburb":"","postcode":"","state":"NSW","lat":-33.959913,"lng":151.153114,"prices":{"E10":1.775,"U98":2.055,"PDL":2.475,"U91":1.795}},{"code":"20046","name":"Ampol Foodary Halfway Creek","brand":"Ampol Foodary","address":"50 KUNGALA RD, HALFWAY CREEK NSW 2460","suburb":"","postcode":"","state":"NSW","lat":-29.92085,"lng":153.065221,"prices":{"DL":2.469,"E10":1.769,"U95":1.959,"U98":2.059,"PDL":2.499,"U91":1.789}},{"code":"20047","name":"ARKO ENERGY GOULBURN","brand":"Arko Energy","address":"33-35 LAGOON ST, GOULBURN NSW 2580","suburb":"","postcode":"","state":"NSW","lat":-34.748272,"lng":149.726202,"prices":{"DL":2.409,"E10":1.748,"U98":1.999,"PDL":2.409,"U91":1.768}},{"code":"20048","name":"Shell Temora","brand":"Shell","address":"145-147 HOSKINS ST, TEMORA NSW 2666","suburb":"","postcode":"","state":"NSW","lat":-34.44571,"lng":147.533716,"prices":{"U95":2.089,"U98":2.229,"PDL":2.479,"U91":1.919}},{"code":"20049","name":"Glenreagh General Store","brand":"Independent","address":"49 CORAMBA ST, GLENREAGH NSW 2450","suburb":"","postcode":"","state":"NSW","lat":-30.050143,"lng":152.979223,"prices":{"DL":2.549,"U91":1.959}},{"code":"20050","name":"BP Mayfield","brand":"BP","address":"23 MAITLAND RD, MAYFIELD NSW 2304","suburb":"","postcode":"","state":"NSW","lat":-32.903,"lng":151.744501,"prices":{"E10":1.799,"U98":2.059,"PDL":2.469,"U91":1.819}},{"code":"20051","name":"Ampol Guyra","brand":"Ampol","address":"4352 NEW ENGLAND HWY, GUYRA NSW 2365","suburb":"","postcode":"","state":"NSW","lat":-30.205971,"lng":151.675722,"prices":{"DL":2.495,"U98":2.225,"U91":1.975}},{"code":"20052","name":"Tea Tree Roadhouse","brand":"Shell","address":"158 MOUNT DARRAGH RD, SOUTH PAMBULA NSW 2549","suburb":"","postcode":"","state":"NSW","lat":-36.942972,"lng":149.846876,"prices":{"DL":2.779,"U98":2.219,"U91":1.979}},{"code":"20053","name":"BP Glen Innes","brand":"BP","address":"205 FERGUSON ST, GLEN INNES NSW 2370","suburb":"","postcode":"","state":"NSW","lat":-29.734543,"lng":151.728845,"prices":{"DL":2.569,"U98":2.309,"U91":2.079}},{"code":"20054","name":"Speedway Warabrook","brand":"Speedway","address":"Shop 9/3 Angophora Dr, Warabrook NSW 2304","suburb":"","postcode":"","state":"NSW","lat":-32.886788,"lng":151.719105,"prices":{"DL":2.315,"E10":1.745,"U98":1.965,"U91":1.765}},{"code":"20055","name":"Long flat store","brand":"Ampol","address":"5019 OXLEY HWY, LONG FLAT NSW 2446","suburb":"","postcode":"","state":"NSW","lat":-31.436489,"lng":152.492568,"prices":{"DL":3.409,"U95":2.699}},{"code":"20056","name":"Metro Orange Bathurst Road","brand":"Metro Fuel","address":"68 BATHURST RD, ORANGE NSW 2800","suburb":"","postcode":"","state":"NSW","lat":-33.290734,"lng":149.109431,"prices":{"DL":2.519,"E10":1.809,"U95":2.109,"U91":1.829}},{"code":"20057","name":"7-Eleven Nowra","brand":"7-Eleven","address":"104 WORRIGEE ST, NOWRA NSW 2541","suburb":"","postcode":"","state":"NSW","lat":-34.877361,"lng":150.604329,"prices":{"E10":1.769,"U95":1.959,"U98":2.049,"PDL":2.459,"U91":1.789}},{"code":"20059","name":"South West Fuel - Boorowa","brand":"Ampol","address":"84 MARSDEN ST, BOOROWA NSW 2586","suburb":"","postcode":"","state":"NSW","lat":-34.443025,"lng":148.715102,"prices":{"DL":2.579,"U98":2.319,"U91":2.119}},{"code":"20060","name":"Ag Warehouse","brand":"BP","address":"29 TONGS ST, FINLEY NSW 2713","suburb":"","postcode":"","state":"NSW","lat":-35.65073,"lng":145.574655,"prices":{"DL":2.699,"U91":1.999}},{"code":"20062","name":"7-Eleven Lavington","brand":"7-Eleven","address":"342 URANA RD, LAVINGTON NSW 2641","suburb":"","postcode":"","state":"NSW","lat":-36.049254,"lng":146.932054,"prices":{"E10":1.869,"U95":2.049,"U98":2.139,"PDL":2.519,"U91":1.889}},{"code":"20063","name":"Active fuel","brand":"Independent","address":"SHOP 8 24 LAGONDA DR, INGLEBURN NSW 2565","suburb":"","postcode":"","state":"NSW","lat":-34.010292,"lng":150.876254,"prices":{"DL":2.395,"E10":1.765,"U98":1.985,"U91":1.785}},{"code":"20064","name":"BP Narrabri","brand":"BP","address":"BP SERVICE STATION RES 65 COOMA RD, NARRABRI NSW 2390","suburb":"","postcode":"","state":"NSW","lat":-30.334981,"lng":149.769806,"prices":{"DL":2.499,"U98":2.499,"PDL":2.539,"U91":2.079}},{"code":"20065","name":"Ampol Warrawong","brand":"Ampol","address":"27-41 KING ST, WARRAWONG NSW 2502","suburb":"","postcode":"","state":"NSW","lat":-34.48303,"lng":150.887656,"prices":{"E10":1.779,"U98":2.039,"PDL":2.459,"U91":1.799}},{"code":"20067","name":"AMPOL ROUSEHILL","brand":"Ampol","address":"271 ANNANGROVE ROAD, Rouse Hill NSW 2155","suburb":"","postcode":"","state":"NSW","lat":-33.663734,"lng":150.919128,"prices":{"E10":1.735,"U95":1.935,"U98":2.025,"PDL":2.415,"U91":1.755}},{"code":"20068","name":"METRO PETROLEUM BALLINA","brand":"Metro Fuel","address":"323 RIVER ST, BALLINA NSW 2478","suburb":"","postcode":"","state":"NSW","lat":-28.865993,"lng":153.550433,"prices":{"E10":1.835,"U95":1.955,"U98":2.095,"PDL":2.455,"U91":1.855}},{"code":"20070","name":"OTR Boolaroo","brand":"Shell","address":"106 MUNIBUNG RD, BOOLAROO NSW 2284","suburb":"","postcode":"","state":"NSW","lat":-32.940165,"lng":151.636246,"prices":{"DL":2.459,"E10":1.779,"U98":2.069,"PDL":2.499,"U91":1.799}},{"code":"20071","name":"7-Eleven Robin Hill","brand":"7-Eleven","address":"98 CORPORATION AV, ROBIN HILL NSW 2795","suburb":"","postcode":"","state":"NSW","lat":-33.41359,"lng":149.543917,"prices":{"E10":1.799,"U95":2.009,"U98":2.099,"PDL":2.459,"U91":1.819}},{"code":"20072","name":"Spar Express Yamba","brand":"Liberty","address":"7 WOOLI ST, YAMBA NSW 2464","suburb":"","postcode":"","state":"NSW","lat":-29.4368,"lng":153.358193,"prices":{"DL":2.469,"U98":2.095,"U91":1.939}},{"code":"20074","name":"OTR Hamilton Tudor Street","brand":"Shell","address":"56 TUDOR ST, HAMILTON NSW 2303","suburb":"","postcode":"","state":"NSW","lat":-32.924284,"lng":151.749948,"prices":{"E10":1.749,"U98":2.039,"PDL":2.459,"U91":1.769}},{"code":"20075","name":"OTR Prestons","brand":"Shell","address":"1-5 YATO RD, PRESTONS NSW 2170","suburb":"","postcode":"","state":"NSW","lat":-33.939105,"lng":150.868543,"prices":{"DL":2.429,"E10":1.779,"U95":1.979,"U98":2.069,"PDL":2.469,"U91":1.799}},{"code":"20078","name":"Metro Weston","brand":"Metro Fuel","address":"191 CESSNOCK RD, WESTON NSW 2326","suburb":"","postcode":"","state":"NSW","lat":-32.812484,"lng":151.443842,"prices":{"E10":1.939,"PDL":2.549,"U91":1.959}},{"code":"20079","name":"Pearl Energy Colyton","brand":"Independent","address":"86 GREAT WESTERN HWY, COLYTON NSW 2760","suburb":"","postcode":"","state":"NSW","lat":-33.775522,"lng":150.795325,"prices":{"DL":2.395,"E10":1.775,"U98":2.025,"PDL":2.399,"U91":1.795}},{"code":"20080","name":"Metro Berkeley","brand":"Metro Fuel","address":"57 WINNIMA WAY, BERKELEY NSW 2506","suburb":"","postcode":"","state":"NSW","lat":-34.479927,"lng":150.845923,"prices":{"E10":1.829,"U98":2.079,"PDL":2.439,"U91":1.849}},{"code":"20081","name":"SPEEDWAY WOLLONGONG","brand":"Speedway","address":"505-507 CROWN ST, WEST WOLLONGONG NSW 2500","suburb":"","postcode":"","state":"NSW","lat":-34.425648,"lng":150.872586,"prices":{"E10":1.725,"LPG":1.135,"U98":1.985,"PDL":2.475,"U91":1.745}},{"code":"20082","name":"Bradshaw Mechanical","brand":"Independent","address":"23 FITZROY ST, BINALONG NSW 2584","suburb":"","postcode":"","state":"NSW","lat":-34.669615,"lng":148.632869,"prices":{"DL":2.67,"U95":2.25}},{"code":"20083","name":"Pearl Energy Charmhaven","brand":"Pearl Energy","address":"211 PACIFIC HWY, CHARMHAVEN NSW 2263","suburb":"","postcode":"","state":"NSW","lat":-33.227428,"lng":151.503437,"prices":{"E10":1.795,"U98":2.045,"PDL":2.435,"U91":1.825}},{"code":"20084","name":"CFS Wee Waa","brand":"BP","address":"45 BOOLCARROL RD, WEE WAA NSW 2388","suburb":"","postcode":"","state":"NSW","lat":-30.224124,"lng":149.432492,"prices":{"DL":2.49,"U98":2.35,"U91":2.12}},{"code":"20085","name":"Metro Orange- Self-serve","brand":"Metro Fuel","address":"1686 FOREST RD, ORANGE NSW 2800","suburb":"","postcode":"","state":"NSW","lat":-33.303577,"lng":149.100149,"prices":{"DL":2.579,"PDL":2.579}},{"code":"20086","name":"Metro Petroleum Scullin","brand":"Metro Fuel","address":"GARAGE 120 ROSS SMITH CR, SCULLIN ACT 2614","suburb":"","postcode":"","state":"NSW","lat":-35.23321,"lng":149.041228,"prices":{"E10":1.769,"U98":2.029,"PDL":2.669,"U91":1.799}},{"code":"20087","name":"Douglas Park Service Station","brand":"Independent","address":"145 CAMDEN RD, DOUGLAS PARK NSW 2569","suburb":"","postcode":"","state":"NSW","lat":-34.182393,"lng":150.711428,"prices":{"U98":2.399,"PDL":2.599,"U91":1.899}},{"code":"20088","name":"Port Pitstop","brand":"Independent","address":"21-27 TARCOOLA ST, POONCARIE NSW 2648","suburb":"","postcode":"","state":"NSW","lat":-33.386454,"lng":142.570905,"prices":{"DL":2.499,"U98":2.199,"U91":1.999}},{"code":"20089","name":"SPEEDWAY PARRAMATTA","brand":"Speedway","address":"127A ALFRED ST, PARRAMATTA NSW 2150","suburb":"","postcode":"","state":"NSW","lat":-33.817864,"lng":151.017544,"prices":{"DL":2.475,"U98":2.025,"U91":1.755}},{"code":"20090","name":"METRO PETROLEUM PHILLIP","brand":"Metro Fuel","address":"103 HINDMARSH DR, PHILLIP ACT 2606","suburb":"","postcode":"","state":"NSW","lat":-35.349177,"lng":149.085739,"prices":{"E10":1.839,"U98":2.099,"PDL":2.659,"U91":1.879}},{"code":"20091","name":"BP Moorebank","brand":"BP","address":"226 NEWBRIDGE RD, MOOREBANK NSW 2170","suburb":"","postcode":"","state":"NSW","lat":-33.929299,"lng":150.953464,"prices":{"DL":2.459,"E10":1.759,"U95":1.999,"U98":2.099,"PDL":2.499,"U91":1.799}},{"code":"20092","name":"OTR Broken Hill South","brand":"Shell","address":"90 PATTON ST, BROKEN HILL NSW 2880","suburb":"","postcode":"","state":"NSW","lat":-31.980979,"lng":141.459057,"prices":{"DL":2.459,"E10":1.779,"U98":2.069,"U91":1.799}},{"code":"20093","name":"PEARL ENERGY QUEANBEYAN","brand":"Pearl Energy","address":"46 LOWE ST, QUEANBEYAN NSW 2620","suburb":"","postcode":"","state":"NSW","lat":-35.354969,"lng":149.232854,"prices":{"E10":1.799,"U98":2.055,"PDL":2.435,"U91":1.819}},{"code":"20095","name":"AMPOL PARKLEA","brand":"Ampol","address":"Shop 3, 1190 Miami Street Glenwood NSW 2768","suburb":"","postcode":"","state":"NSW","lat":-33.724091,"lng":150.938913,"prices":{"E10":1.769,"U95":1.959,"U98":2.059,"PDL":2.519,"U91":1.789}},{"code":"20096","name":"Shell Young Metro","brand":"Metro Fuel","address":"85 MAIN ST, YOUNG NSW 2594","suburb":"","postcode":"","state":"NSW","lat":-34.313778,"lng":148.295232,"prices":{"E10":1.799,"U98":2.099,"PDL":2.499,"U91":1.829}},{"code":"20097","name":"Liberty Bingara Cafe","brand":"Liberty","address":"56 FINCH ST, BINGARA NSW 2404","suburb":"","postcode":"","state":"NSW","lat":-29.867658,"lng":150.569152,"prices":{"DL":2.489,"U98":2.209,"U91":1.899}},{"code":"20098","name":"Metro Scone(Pegasus pitstop)","brand":"Metro Fuel","address":"18 KELLY ST, SCONE NSW 2337","suburb":"","postcode":"","state":"NSW","lat":-32.039446,"lng":150.86528,"prices":{"E10":1.939,"U98":2.199,"PDL":2.639,"U91":1.959}},{"code":"20099","name":"ARKO ENERGY FORESTVILLE","brand":"Arko Energy","address":"656 WARRINGAH RD, FORESTVILLE NSW 2087","suburb":"","postcode":"","state":"NSW","lat":-33.759588,"lng":151.212081,"prices":{"DL":2.409,"E10":1.729,"U98":2.019,"PDL":2.409,"U91":1.749}},{"code":"20100","name":"Enhance Merrylands","brand":"Enhance","address":"506 MERRYLANDS RD, MERRYLANDS WEST NSW 2160","suburb":"","postcode":"","state":"NSW","lat":-33.832687,"lng":150.96969,"prices":{"E10":1.749,"U98":1.993,"PDL":2.289,"U91":1.785}},{"code":"20102","name":"Enhance Smeaton Grange","brand":"Enhance","address":"79 HARTLEY RD, SMEATON GRANGE NSW 2567","suburb":"","postcode":"","state":"NSW","lat":-34.042009,"lng":150.76134,"prices":{"PDL":2.379}},{"code":"20103","name":"Pearl Energy Bomaderry","brand":"Pearl Energy","address":"266 PRINCES HWY, BOMADERRY NSW 2541","suburb":"","postcode":"","state":"NSW","lat":-34.839981,"lng":150.595345,"prices":{"E10":1.765,"U95":1.915,"U98":2.005,"PDL":2.395,"U91":1.785}},{"code":"20104","name":"Ampol Service Station","brand":"Ampol","address":"295-301 MURRAY ST, FINLEY NSW 2713","suburb":"","postcode":"","state":"NSW","lat":-35.648686,"lng":145.572929,"prices":{"DL":2.699,"U98":2.359,"PDL":2.719,"U91":1.999}},{"code":"20106","name":"METRO PETROLEUM TARRO","brand":"Metro Fuel","address":"107 ANDERSON DR, TARRO NSW 2322","suburb":"","postcode":"","state":"NSW","lat":-32.807612,"lng":151.658842,"prices":{"E10":1.745,"U95":1.875,"PDL":2.335,"U91":1.765}},{"code":"20107","name":"BP Shalvey","brand":"BP","address":"481 LUXFORD RD, SHALVEY NSW 2770","suburb":"","postcode":"","state":"NSW","lat":-33.729482,"lng":150.805285,"prices":{"DL":2.509,"U95":1.969,"U98":2.069,"U91":1.849}},{"code":"20108","name":"PRIME PETERSHAM","brand":"Prime","address":"8 CRYSTAL ST, PETERSHAM NSW 2049","suburb":"","postcode":"","state":"NSW","lat":-33.888684,"lng":151.158573,"prices":{"DL":2.499,"E10":1.779,"U98":2.039,"U91":1.809}},{"code":"20109","name":"Metro South Windsor","brand":"Metro Fuel","address":"488 GEORGE ST, SOUTH WINDSOR NSW 2756","suburb":"","postcode":"","state":"NSW","lat":-33.617064,"lng":150.808339,"prices":{"E10":1.775,"E85":2.399,"U98":2.015,"PDL":2.395,"U91":1.795}},{"code":"20110","name":"Ultra Tuross Head","brand":"Ultra Petroleum","address":"36 EVANS RD, TUROSS HEAD NSW 2537","suburb":"","postcode":"","state":"NSW","lat":-36.058757,"lng":150.139279,"prices":{"DL":2.419,"U95":1.979,"U98":2.059,"U91":1.829}},{"code":"20111","name":"Cobargo Service Station","brand":"United","address":"39-41 PRINCES HWY, COBARGO NSW 2550","suburb":"","postcode":"","state":"NSW","lat":-36.386903,"lng":149.889608,"prices":{"DL":2.429,"U98":2.229,"U91":1.909}},{"code":"20114","name":"Metro Petroleum Fingal Bay","brand":"Metro Fuel","address":"5 BOULDER BAY RD, FINGAL BAY NSW 2315","suburb":"","postcode":"","state":"NSW","lat":-32.749116,"lng":152.1694,"prices":{"E10":1.815,"U98":2.035,"PDL":2.355,"U91":1.835}},{"code":"20115","name":"Metro Aberdeen","brand":"Metro Fuel","address":"134 MACQUEEN ST, ABERDEEN NSW 2336","suburb":"","postcode":"","state":"NSW","lat":-32.168338,"lng":150.891815,"prices":{"E10":1.779,"U98":2.039,"PDL":2.439,"U91":1.799}},{"code":"20123","name":"Pearl Energy Narooma","brand":"Pearl Energy","address":"60 PRINCES HWY, NAROOMA NSW 2546","suburb":"","postcode":"","state":"NSW","lat":-36.216179,"lng":150.126261,"prices":{"E10":1.929,"U98":2.269,"PDL":2.499,"U91":1.929}},{"code":"20125","name":"Speedway Auburn Road","brand":"Speedway","address":"74-78 AUBURN RD, AUBURN NSW 2144","suburb":"","postcode":"","state":"NSW","lat":-33.854649,"lng":151.032508,"prices":{"DL":2.455,"E10":1.745,"U95":1.885,"U98":1.975,"U91":1.765}},{"code":"20126","name":"BP Tumbarumba Servo","brand":"BP","address":"21 BRIDGE ST, TUMBARUMBA NSW 2653","suburb":"","postcode":"","state":"NSW","lat":-35.776979,"lng":148.011148,"prices":{"DL":2.747,"U98":2.347,"U91":2.097}},{"code":"20127","name":"7-Eleven Huntlee","brand":"7-Eleven","address":"2 BAKEHOUSE RD, NORTH ROTHBURY NSW 2335","suburb":"","postcode":"","state":"NSW","lat":-32.67357,"lng":151.350631,"prices":{"E10":1.799,"U95":1.999,"U98":2.089,"PDL":2.499,"U91":1.819}},{"code":"20128","name":"Metro Petroleum Wauchope","brand":"Metro Fuel","address":"210 HIGH ST, WAUCHOPE NSW 2446","suburb":"","postcode":"","state":"NSW","lat":-31.466646,"lng":152.719237,"prices":{"U98":2.039,"PDL":2.415,"U91":1.835}},{"code":"20130","name":"BP Wollongbar Village","brand":"BP","address":"246-250 LISMORE RD, WOLLONGBAR NSW 2477","suburb":"","postcode":"","state":"NSW","lat":-28.825717,"lng":153.415273,"prices":{"E10":1.949,"U95":2.129,"U98":2.219,"PDL":2.599,"U91":1.969}},{"code":"20131","name":"Speedway Park Road","brand":"Speedway","address":"360 PARK RD, REGENTS PARK NSW 2143","suburb":"","postcode":"","state":"NSW","lat":-33.879403,"lng":151.024905,"prices":{"DL":2.455,"E10":1.765,"U98":1.975,"U91":1.785}},{"code":"20133","name":"Metro Condell Park West","brand":"Metro Fuel","address":"130 EDGAR ST, CONDELL PARK NSW 2200","suburb":"","postcode":"","state":"NSW","lat":-33.916224,"lng":151.013734,"prices":{"E10":2.139,"U98":2.359,"PDL":2.389,"U91":2.159}},{"code":"20134","name":"Ultra Canowindra","brand":"Ultra Petroleum","address":"19-23 GASKILL ST, CANOWINDRA NSW 2804","suburb":"","postcode":"","state":"NSW","lat":-33.567255,"lng":148.662013,"prices":{"DL":2.499,"E10":1.899,"U98":2.169,"U91":1.919}},{"code":"20135","name":"Unmanned - Metro Petroleum Bethungra","brand":"Metro Fuel","address":"VILLAGE STORE 54 BAYLIS ST, BETHUNGRA NSW 2590","suburb":"","postcode":"","state":"NSW","lat":-34.760645,"lng":147.855261,"prices":{"DL":2.679,"PDL":2.679,"U91":1.999}},{"code":"20139","name":"Ultra Oberon","brand":"Ultra Petroleum","address":"84 OBERON ST, OBERON NSW 2787","suburb":"","postcode":"","state":"NSW","lat":-33.704966,"lng":149.860454,"prices":{"DL":2.599,"E10":1.819,"U95":2.039,"U98":2.099,"U91":1.839}},{"code":"20140","name":"Metro Petroleum Gosford","brand":"Metro Fuel","address":"57 CENTRAL COAST HWY, WEST GOSFORD NSW 2250","suburb":"","postcode":"","state":"NSW","lat":-33.42695,"lng":151.32893,"prices":{"E10":1.729,"U95":1.929,"U98":1.999,"PDL":2.399,"U91":1.759}},{"code":"20141","name":"Shell Nyngan","brand":"Shell","address":"57 PANGEE ST, NYNGAN NSW 2825","suburb":"","postcode":"","state":"NSW","lat":-31.561481,"lng":147.19258,"prices":{"DL":2.509,"U98":2.199,"U91":2.039}},{"code":"20145","name":"Mobil East Wagga Wagga","brand":"Mobil","address":"26 HOUTMAN ST, EAST WAGGA WAGGA NSW 2650","suburb":"","postcode":"","state":"NSW","lat":-35.12421,"lng":147.401751,"prices":{"DL":2.389,"E10":1.799,"U95":1.949,"U98":2.039,"PDL":2.399,"U91":1.819}},{"code":"20146","name":"Mobil Corowa","brand":"Mobil","address":"475 HONOUR AV, COROWA NSW 2646","suburb":"","postcode":"","state":"NSW","lat":-35.978928,"lng":146.404941,"prices":{"DL":2.395,"E10":1.789,"U95":1.939,"U98":2.039,"PDL":2.415,"U91":1.809}},{"code":"20147","name":"Metro Shortland","brand":"Metro Fuel","address":"278 SANDGATE RD, SHORTLAND NSW 2307","suburb":"","postcode":"","state":"NSW","lat":-32.887467,"lng":151.695193,"prices":{"E10":1.779,"U95":1.955,"PDL":2.399,"U91":1.799}},{"code":"20149","name":"7-Eleven Lismore","brand":"7-Eleven","address":"135 UNION ST, SOUTH LISMORE NSW 2480","suburb":"","postcode":"","state":"NSW","lat":-28.812769,"lng":153.266609,"prices":{"E10":1.879,"U95":2.039,"U98":2.129,"PDL":2.439,"U91":1.899}},{"code":"20150","name":"JACK & CO NORTHWOOD","brand":"BP","address":"7 NORTHWOOD RD, LONGUEVILLE NSW 2066","suburb":"","postcode":"","state":"NSW","lat":-33.824553,"lng":151.172574,"prices":{"E10":1.795,"U95":1.995,"U98":2.095,"PDL":2.495}},{"code":"20153","name":"Metro Petroleum Woodburn","brand":"Metro Fuel","address":"129 RIVER ST, WOODBURN NSW 2472","suburb":"","postcode":"","state":"NSW","lat":-29.072032,"lng":153.341001,"prices":{"U98":2.099,"PDL":2.429,"U91":1.899}},{"code":"20154","name":"Shell Wandandian","brand":"Shell","address":"2720 PRINCES HWY, WANDANDIAN NSW 2540","suburb":"","postcode":"","state":"NSW","lat":-35.091388,"lng":150.50722,"prices":{"E10":1.979,"U95":2.149,"U98":2.219,"PDL":2.499,"U91":1.999}},{"code":"20155","name":"Mobil Adelong","brand":"Mobil","address":"96 TUMUT ST, ADELONG NSW 2729","suburb":"","postcode":"","state":"NSW","lat":-35.307234,"lng":148.06301,"prices":{"DL":2.499,"U95":2.049,"U91":1.899}},{"code":"20156","name":"Ampol Brunkerville","brand":"Ampol","address":"1549 LEGGETTS DR, BRUNKERVILLE NSW 2323","suburb":"","postcode":"","state":"NSW","lat":-32.964686,"lng":151.479655,"prices":{"U98":2.069,"PDL":2.599,"U91":1.839}},{"code":"20157","name":"Pearl Energy Taree South","brand":"Independent","address":"7087 THE BUCKETTS WAY, TAREE SOUTH NSW 2430","suburb":"","postcode":"","state":"NSW","lat":-31.937536,"lng":152.459245,"prices":{"U98":2.015,"PDL":2.495,"U91":1.785}},{"code":"20158","name":"Ampol Fyshwick","brand":"Ampol","address":"289 CANBERRA AV, FYSHWICK ACT 2609","suburb":"","postcode":"","state":"NSW","lat":-35.334119,"lng":149.169884,"prices":{"U95":2.299,"U98":2.499,"PDL":2.799,"U91":1.999}},{"code":"20159","name":"Mobil Gunnedah","brand":"Mobil","address":"277 CONADILLY ST, GUNNEDAH NSW 2380","suburb":"","postcode":"","state":"NSW","lat":-30.979021,"lng":150.255421,"prices":{"U98":2.099,"PDL":2.589,"U91":1.879}},{"code":"20161","name":"Metro Lockhart","brand":"Metro Fuel","address":"57 URANA ST, LOCKHART NSW 2656","suburb":"","postcode":"","state":"NSW","lat":-35.222105,"lng":146.712358,"prices":{"DL":2.499,"U91":2.049}},{"code":"20162","name":"Mobil Ballina","brand":"Mobil","address":"485 RIVER ST, WEST BALLINA NSW 2478","suburb":"","postcode":"","state":"NSW","lat":-28.8635,"lng":153.535034,"prices":{"E10":1.835,"U95":1.985,"U98":2.075,"PDL":2.455,"U91":1.855}},{"code":"20163","name":"Mobil Gillenbah","brand":"Mobil","address":"16305 NEWELL HWY, GILLENBAH NSW 2700","suburb":"","postcode":"","state":"NSW","lat":-34.761764,"lng":146.537922,"prices":{"U95":2.139,"U98":2.239,"U91":2.029}},{"code":"20164","name":"Blue Dolphin Service Station, YAMBA","brand":"Independent","address":"BLUE DOPLHIN CARAVAN PARK 31-65 YAMBA RD, YAMBA NSW 2464","suburb":"","postcode":"","state":"NSW","lat":-29.43285,"lng":153.340811,"prices":{"DL":2.501,"U98":2.125,"U91":1.945}},{"code":"20165","name":"Ampol Wallendbeen","brand":"Ampol","address":"27 YOUNG ST, WALLENDBEEN NSW 2588","suburb":"","postcode":"","state":"NSW","lat":-34.529788,"lng":148.163766,"prices":{"DL":2.499,"E10":1.779,"U98":2.099,"PDL":2.519,"U91":1.799}},{"code":"20166","name":"Metro Petroleum Temora","brand":"Metro Fuel","address":"90 VICTORIA ST, TEMORA NSW 2666","suburb":"","postcode":"","state":"NSW","lat":-34.448894,"lng":147.535185,"prices":{"DL":2.399,"U98":2.139,"PDL":2.399,"U91":1.859}},{"code":"20167","name":"AMPOL TUMBARUMBA SERVO","brand":"Ampol","address":"76 THE PARADE, TUMBARUMBA NSW 2653","suburb":"","postcode":"","state":"NSW","lat":-35.773114,"lng":148.011317,"prices":{"DL":2.749,"U98":2.349,"U91":2.099}},{"code":"20168","name":"Pearl Energy Albury","brand":"Pearl Energy","address":"842-844 DAVID ST North Albury NSW 2640","suburb":"","postcode":"","state":"NSW","lat":-36.063984,"lng":146.925284,"prices":{"E10":1.795,"U98":2.045,"PDL":2.415,"U91":1.815}},{"code":"20169","name":"Liberty Narrandera","brand":"Liberty","address":"110 AUDLEY ST, NARRANDERA NSW 2700","suburb":"","postcode":"","state":"NSW","lat":-34.7483,"lng":146.550685,"prices":{"DL":2.479,"E10":1.799,"U98":2.189,"U91":2.029}},{"code":"20170","name":"IGA Blackheath","brand":"Independent","address":"211 GREAT WESTERN HWY, BLACKHEATH NSW 2785","suburb":"","postcode":"","state":"NSW","lat":-33.637554,"lng":150.285472,"prices":{"DL":2.489,"E10":1.799,"U98":2.059,"U91":1.839}},{"code":"20171","name":"NANGUS GARAGE","brand":"Independent","address":"2165 NANGUS RD, NANGUS NSW 2722","suburb":"","postcode":"","state":"NSW","lat":-35.054147,"lng":147.903753,"prices":{"DL":3.459}},{"code":"20172","name":"Boambee Bay Service Station & General Store","brand":"Independent","address":"28 SAWTELL RD, TOORMINA NSW 2452","suburb":"","postcode":"","state":"NSW","lat":-30.352156,"lng":153.100299,"prices":{"DL":2.559,"U95":2.079,"U91":1.979}},{"code":"20173","name":"Enhance Dubbo","brand":"Enhance","address":"26L YARRANDALE RD, DUBBO NSW 2830","suburb":"","postcode":"","state":"NSW","lat":-32.215765,"lng":148.632498,"prices":{"U98":2.129,"PDL":2.385,"U91":1.899}},{"code":"20174","name":"ANU Site 1 School of Art","brand":"Chargefox","address":"THEATRE 3 3 REPERTORY LANE, CITY ACT 2601","suburb":"","postcode":"","state":"NSW","lat":-35.281566,"lng":149.122506,"prices":{"EV":0.0}},{"code":"20175","name":"Marketplace Gungahlin","brand":"Chargefox","address":"30 HIBBERSON ST, GUNGAHLIN ACT 2912","suburb":"","postcode":"","state":"NSW","lat":-35.185475,"lng":149.13353,"prices":{"EV":0.0}},{"code":"20176","name":"Metro Farrer","brand":"Metro Fuel","address":"SERVICE STATION 53 LAMBRIGG ST, FARRER ACT 2607","suburb":"","postcode":"","state":"NSW","lat":-35.375911,"lng":149.101739,"prices":{"E10":1.835,"U98":2.079,"PDL":2.639,"U91":1.875}},{"code":"20177","name":"Cardiff station","brand":"Independent","address":"200 MAIN RD, CARDIFF NSW 2285","suburb":"","postcode":"","state":"NSW","lat":-32.941025,"lng":151.668436,"prices":{"DL":2.469,"U98":2.099,"U91":1.869}},{"code":"20178","name":"Starlite Power Petroleum","brand":"Independent","address":"105 WYEE RD, WYEE NSW 2259","suburb":"","postcode":"","state":"NSW","lat":-33.17521,"lng":151.480739,"prices":{"DL":2.395,"U95":1.995,"U98":2.095,"U91":1.895}},{"code":"20179","name":"PEARL ENERGY WAUCHOPE","brand":"Pearl Energy","address":"232 HIGH ST, WAUCHOPE NSW 2446","suburb":"","postcode":"","state":"NSW","lat":-31.46863,"lng":152.716237,"prices":{"E10":1.795,"U95":1.945,"U98":2.035,"PDL":2.395,"U91":1.815}},{"code":"20180","name":"Liberty Brocklehurst","brand":"Liberty","address":"4 BURRAWAY RD, BROCKLEHURST NSW 2830","suburb":"","postcode":"","state":"NSW","lat":-32.180933,"lng":148.62137,"prices":{"DL":2.389,"E10":1.739,"U95":1.929,"U98":2.009,"PDL":2.419,"U91":1.779}},{"code":"20181","name":"Liberty Narromine","brand":"Liberty","address":"49 BURRAWAY ST, NARROMINE NSW 2821","suburb":"","postcode":"","state":"NSW","lat":-32.235653,"lng":148.245426,"prices":{"DL":2.599,"E10":1.759,"U98":1.929,"U91":1.799}},{"code":"20182","name":"BP Kingsford","brand":"BP","address":"368 ANZAC PDE, KINGSFORD NSW 2032","suburb":"","postcode":"","state":"NSW","lat":-33.91964,"lng":151.22681,"prices":{"E10":2.179,"U98":2.419,"PDL":2.499,"U91":2.199}},{"code":"20184","name":"Shell Tolland","brand":"Shell","address":"229 BOURKE ST, TOLLAND NSW 2650","suburb":"","postcode":"","state":"NSW","lat":-35.142862,"lng":147.351418,"prices":{"U98":2.219,"PDL":2.489,"U91":1.999}},{"code":"20185","name":"PEARL LITHGOW","brand":"Pearl Energy","address":"1106 GREAT WESTERN HWY, BOWENFELS NSW 2790","suburb":"","postcode":"","state":"NSW","lat":-33.484257,"lng":150.13487,"prices":{"E10":1.819,"U98":2.099,"PDL":2.479,"U91":1.839}},{"code":"20186","name":"BP West Pymble","brand":"BP","address":"45 YANKO RD, WEST PYMBLE NSW 2073","suburb":"","postcode":"","state":"NSW","lat":-33.762079,"lng":151.128525,"prices":{"E10":1.799,"U95":1.979,"U98":2.059,"PDL":2.499}},{"code":"20187","name":"Metro Petroleum Kahibah","brand":"Metro Fuel","address":"93A WALLSEND ST, KAHIBAH NSW 2290","suburb":"","postcode":"","state":"NSW","lat":-32.96325,"lng":151.709965,"prices":{"E10":1.797,"PDL":2.459,"U91":1.817}},{"code":"20188","name":"PEARL ENERGY BUNGENDORE","brand":"Pearl Energy","address":"42 MALBON ST, BUNGENDORE NSW 2621","suburb":"","postcode":"","state":"NSW","lat":-35.256197,"lng":149.442631,"prices":{"E10":1.815,"LPG":1.359,"U95":1.965,"U98":2.065,"PDL":2.435,"U91":1.835}},{"code":"20189","name":"Metro Tuggerawong","brand":"Metro Fuel","address":"2 CADONIA RD, TUGGERAWONG NSW 2259","suburb":"","postcode":"","state":"NSW","lat":-33.280619,"lng":151.480442,"prices":{"DL":2.479,"PDL":2.479,"U91":1.839}},{"code":"20190","name":"Riverview Servo","brand":"Independent","address":"595 OCEAN DR, NORTH HAVEN NSW 2443","suburb":"","postcode":"","state":"NSW","lat":-31.640413,"lng":152.815526,"prices":{"DL":2.259,"U98":2.009,"U91":1.849}},{"code":"20192","name":"Shell Blayney","brand":"Shell","address":"27 ORANGE RD, BLAYNEY NSW 2799","suburb":"","postcode":"","state":"NSW","lat":-33.527072,"lng":149.244581,"prices":{"DL":2.429,"U98":2.199,"U91":1.979}},{"code":"20193","name":"Caltex East Gosford","brand":"Caltex","address":"42 VICTORIA ST, EAST GOSFORD NSW 2250","suburb":"","postcode":"","state":"NSW","lat":-33.438046,"lng":151.353304,"prices":{"E10":1.779,"U95":1.969,"U98":2.079,"PDL":2.449,"U91":1.799}},{"code":"20194","name":"BP Woodpark Road","brand":"BP","address":"186 WOODPARK RD, SMITHFIELD NSW 2164","suburb":"","postcode":"","state":"NSW","lat":-33.838954,"lng":150.950501,"prices":{"E10":1.829,"U98":2.139,"PDL":2.599,"U91":1.869}},{"code":"20195","name":"United New Berrima","brand":"United","address":"104-106 TAYLOR AV, NEW BERRIMA NSW 2577","suburb":"","postcode":"","state":"NSW","lat":-34.504131,"lng":150.332188,"prices":{"DL":2.445,"U95":1.955,"U98":2.045,"U91":1.815}},{"code":"20196","name":"Metro Petroleum Tempe","brand":"Metro Fuel","address":"531 PRINCES HWY, TEMPE NSW 2044","suburb":"","postcode":"","state":"NSW","lat":-33.920258,"lng":151.167542,"prices":{"E10":1.725,"U98":1.999,"PDL":2.399,"U91":1.745}},{"code":"20197","name":"Metro Salamander Bay","brand":"Metro Fuel","address":"12 RANDALL DR, SALAMANDER BAY NSW 2317","suburb":"","postcode":"","state":"NSW","lat":-32.721548,"lng":152.077803,"prices":{"DL":2.355,"E10":1.815,"U98":2.035,"PDL":2.355,"U91":1.835}},{"code":"20198","name":"Access Fuels Tea Gardens","brand":"Caltex","address":"1 MYALL QUAYS BVD, TEA GARDENS NSW 2324","suburb":"","postcode":"","state":"NSW","lat":-32.650936,"lng":152.14918,"prices":{"E10":1.975,"U98":2.255,"PDL":2.475,"U91":1.995}},{"code":"20199","name":"Caltex Milton & Acai Bowl","brand":"Caltex","address":"90 PRINCES HWY, MILTON NSW 2538","suburb":"","postcode":"","state":"NSW","lat":-35.317087,"lng":150.437112,"prices":{"DL":2.479,"U98":2.279,"U91":1.999}},{"code":"20200","name":"Metro Mount Pritchard","brand":"Metro Fuel","address":"472 CABRAMATTA RD WEST, MOUNT PRITCHARD NSW 2170","suburb":"","postcode":"","state":"NSW","lat":-33.897038,"lng":150.912351,"prices":{"DL":2.459,"E10":1.779,"U98":1.999,"PDL":2.459,"U91":1.799}},{"code":"20201","name":"BP Willoughby","brand":"BP","address":"316 PENSHURST ST, NORTH WILLOUGHBY NSW 2068","suburb":"","postcode":"","state":"NSW","lat":-33.793815,"lng":151.195894,"prices":{"E10":1.799,"U95":1.979,"U98":2.069,"PDL":2.499}},{"code":"20202","name":"BP Batemans Bay","brand":"BP","address":"85-87 PRINCES HWY, BATEMANS BAY NSW 2536","suburb":"","postcode":"","state":"NSW","lat":-35.719405,"lng":150.176276,"prices":{"DL":2.449,"E10":1.809,"U98":2.089,"U91":1.839}},{"code":"20204","name":"Enhance Gunnedah","brand":"Enhance","address":"8 LAW CL, GUNNEDAH NSW 2380","suburb":"","postcode":"","state":"NSW","lat":-30.964109,"lng":150.233733,"prices":{"PDL":2.449}},{"code":"20205","name":"Enhance Wyalong","brand":"Enhance","address":"20-22 NEELD ST, WYALONG NSW 2671","suburb":"","postcode":"","state":"NSW","lat":-33.926794,"lng":147.248309,"prices":{"U98":2.229,"PDL":2.399,"U91":1.985}},{"code":"20206","name":"Metro Petroleum CESSNOCK","brand":"Metro Fuel","address":"105 WOLLOMBI RD, CESSNOCK NSW 2325","suburb":"","postcode":"","state":"NSW","lat":-32.839355,"lng":151.343011,"prices":{"DL":2.475,"E10":1.799,"U95":1.955,"U98":2.019,"PDL":2.475,"U91":1.819}},{"code":"20207","name":"Astron Yagoona","brand":"ASTRON","address":"45 ROOKWOOD RD, YAGOONA NSW 2199","suburb":"","postcode":"","state":"NSW","lat":-33.901877,"lng":151.037178,"prices":{"DL":2.389,"E10":1.769,"E85":2.069,"LPG":1.099,"U95":2.069,"U98":2.089,"U91":1.789}},{"code":"20208","name":"Budget Auburn","brand":"Budget","address":"98 PARK RD, AUBURN NSW 2144","suburb":"","postcode":"","state":"NSW","lat":-33.857141,"lng":151.028921,"prices":{"DL":2.459,"E10":1.769,"U98":1.989,"U91":1.799}},{"code":"20210","name":"Fuel Plus Condobolin","brand":"Independent","address":"20 LACHLAN ST, CONDOBOLIN NSW 2877","suburb":"","postcode":"","state":"NSW","lat":-33.08987,"lng":147.150662,"prices":{"DL":2.579,"U95":2.099,"U91":1.949}},{"code":"20211","name":"Caltex Heddon Greta","brand":"Caltex","address":"195 Main Rd Heddon Greta NSW 2321","suburb":"","postcode":"","state":"NSW","lat":-32.807536,"lng":151.5021,"prices":{"E10":1.945,"U98":2.215,"PDL":2.545,"U91":1.965}},{"code":"20213","name":"Ultra Gilgandra","brand":"Ultra Petroleum","address":"178 WARREN RD, GILGANDRA NSW 2827","suburb":"","postcode":"","state":"NSW","lat":-31.710103,"lng":148.654046,"prices":{"DL":2.369,"E10":1.789,"U98":2.049,"U91":1.809}},{"code":"20214","name":"Mobil Tenterfield","brand":"Mobil","address":"159 ROUSE ST, TENTERFIELD NSW 2372","suburb":"","postcode":"","state":"NSW","lat":-29.056878,"lng":152.018799,"prices":{"U95":1.975,"U98":2.075,"PDL":2.375,"U91":1.855}},{"code":"20215","name":"United Casula","brand":"United","address":"461 HUME HWY, CASULA NSW 2170","suburb":"","postcode":"","state":"NSW","lat":-33.940892,"lng":150.911837,"prices":{"DL":2.379,"U98":2.029,"U91":1.799}},{"code":"20216","name":"Shell Berry","brand":"Shell","address":"88 QUEEN ST, BERRY NSW 2535","suburb":"","postcode":"","state":"NSW","lat":-34.775688,"lng":150.696183,"prices":{"DL":2.549,"E10":1.979,"U98":2.219,"U91":1.999}},{"code":"20217","name":"Mobil Queanbeyan","brand":"Mobil","address":"6 STEPHENS RD, CRESTWOOD NSW 2620","suburb":"","postcode":"","state":"NSW","lat":-35.34657,"lng":149.208712,"prices":{"U98":2.057,"PDL":2.475,"U91":1.837}},{"code":"20218","name":"Metro Barista Bar Croydon Park","brand":"Metro Fuel","address":"236-240 GEORGES RIVER RD, CROYDON PARK NSW 2133","suburb":"","postcode":"","state":"NSW","lat":-33.896412,"lng":151.105288,"prices":{"E10":1.699,"U95":1.869,"U98":1.929,"PDL":2.389,"U91":1.719}},{"code":"20220","name":"LOCAL SERVO TABULAM","brand":"Independent","address":"8597-8601 BRUXNER HWY, TABULAM NSW 2469","suburb":"","postcode":"","state":"NSW","lat":-28.887878,"lng":152.569243,"prices":{"DL":2.449,"U95":2.099,"U98":2.299,"U91":1.879}},{"code":"20224","name":"Mobil Glen Innes","brand":"Mobil","address":"144 Meade St Glenn Innes NSW 2370","suburb":"","postcode":"","state":"NSW","lat":-29.736764,"lng":151.737998,"prices":{"E10":1.835,"U98":2.075,"PDL":2.525,"U91":1.855}},{"code":"20227","name":"ACCESS FUELS RUTHERFORD","brand":"Independent","address":"174 NEW ENGLAND HWY, RUTHERFORD NSW 2320","suburb":"","postcode":"","state":"NSW","lat":-32.718737,"lng":151.53565,"prices":{"E10":1.795,"U98":2.065,"PDL":2.475,"U91":1.815}},{"code":"20228","name":"METCO Albury","brand":"Independent","address":"624 YOUNG ST, ALBURY NSW 2640","suburb":"","postcode":"","state":"NSW","lat":-36.075549,"lng":146.925641,"prices":{"DL":2.415,"E10":1.795,"U98":2.035,"U91":1.815}},{"code":"20229","name":"Westside Toukley","brand":"Westside","address":"356 MAIN RD, TOUKLEY NSW 2263","suburb":"","postcode":"","state":"NSW","lat":-33.266094,"lng":151.548635,"prices":{"DL":2.459,"E10":1.779,"U95":1.979,"U98":2.069,"U91":1.799}},{"code":"20230","name":"BP TONGARRA","brand":"BP","address":"164 TONGARRA RD, ALBION PARK NSW 2527","suburb":"","postcode":"","state":"NSW","lat":-34.570782,"lng":150.770481,"prices":{"E10":1.839,"U95":1.989,"U98":2.089,"PDL":2.549,"U91":1.839}},{"code":"20231","name":"Metco Petroleum","brand":"Independent","address":"126 WINDSOR RD, MCGRATHS HILL NSW 2756","suburb":"","postcode":"","state":"NSW","lat":-33.615367,"lng":150.833362,"prices":{"DL":2.395,"E10":1.725,"U98":1.985,"U91":1.755}},{"code":"20232","name":"Metro Petroleum (Bankstown South)","brand":"Metro Fuel","address":"160 South Terrace Bankstown NSW 2200","suburb":"","postcode":"","state":"NSW","lat":-33.918404,"lng":151.04378,"prices":{"E10":1.749,"U98":1.979,"PDL":2.419,"U91":1.769}},{"code":"20233","name":"ACCESS FUELS THORNTON","brand":"Caltex","address":"2 WEAKLEYS DR, THORNTON NSW 2322","suburb":"","postcode":"","state":"NSW","lat":-32.792163,"lng":151.63652,"prices":{"E10":1.775,"U98":2.045,"PDL":2.445,"U91":1.795}},{"code":"20235","name":"CALTEX MURWILLUMBAH","brand":"Caltex","address":"182 TWEED VALLEY WAY, SOUTH MURWILLUMBAH NSW 2484","suburb":"","postcode":"","state":"NSW","lat":-28.326389,"lng":153.410359,"prices":{"E10":1.765,"U98":2.065,"PDL":2.515,"U91":1.785}},{"code":"20236","name":"Liberty Gurley","brand":"Liberty","address":"41 GURLEY ST, GURLEY NSW 2398","suburb":"","postcode":"","state":"NSW","lat":-29.736494,"lng":149.799321,"prices":{"DL":2.399,"E10":1.755,"U98":2.025,"PDL":2.429,"U91":1.795}},{"code":"20238","name":"Metro Petroleum Cowra","brand":"Metro Fuel","address":"1 MULYAN ST, COWRA NSW 2794","suburb":"","postcode":"","state":"NSW","lat":-33.828207,"lng":148.683136,"prices":{"E10":1.935,"U98":2.185,"PDL":2.795,"U91":1.955}},{"code":"20239","name":"BP WALLSEND","brand":"BP","address":"103 NEWCASTLE RD, WALLSEND NSW 2287","suburb":"","postcode":"","state":"NSW","lat":-32.904054,"lng":151.682397,"prices":{"E10":1.745,"U98":2.035,"PDL":2.415,"U91":1.765}},{"code":"20240","name":"Inland Petroleum Condobolin","brand":"Inland Petroleum","address":"5-7 WIRADJURI WAY, CONDOBOLIN NSW 2877","suburb":"","postcode":"","state":"NSW","lat":-33.074629,"lng":147.147571,"prices":{"DL":2.579,"U95":2.089,"U91":1.939}},{"code":"20241","name":"EG Ampol Oran Park","brand":"EG Ampol","address":"3 DUNK PL, ORAN PARK NSW 2570","suburb":"","postcode":"","state":"NSW","lat":-33.995421,"lng":150.727869,"prices":{"E10":1.809,"U95":1.999,"U98":2.089,"PDL":2.489,"U91":1.829}},{"code":"20242","name":"METRO PETROLEUM (HABERFIELD)","brand":"Metro Fuel","address":"163-165 PARRAMATTA RD, HABERFIELD NSW 2045","suburb":"","postcode":"","state":"NSW","lat":-33.883649,"lng":151.134535,"prices":{"E10":1.779,"U98":2.019,"PDL":2.455,"U91":1.799}},{"code":"20243","name":"Enhance Tomakin","brand":"Enhance","address":"2111 GEORGE BASS DR, TOMAKIN NSW 2537","suburb":"","postcode":"","state":"NSW","lat":-35.823285,"lng":150.186164,"prices":{"U98":2.125,"PDL":2.499,"U91":1.895}},{"code":"20244","name":"Metro Londonderry","brand":"Metro Fuel","address":"486 LONDONDERRY RD, LONDONDERRY NSW 2753","suburb":"","postcode":"","state":"NSW","lat":-33.64247,"lng":150.734373,"prices":{"E10":1.785,"U98":2.015,"PDL":2.395,"U91":1.795}},{"code":"20245","name":"BP Boorooma","brand":"BP","address":"8 MESSENGER AV, BOOROOMA NSW 2650","suburb":"","postcode":"","state":"NSW","lat":-35.075356,"lng":147.358991,"prices":{"DL":2.379,"E10":1.879,"U95":2.059,"U98":2.129,"PDL":2.399,"U91":1.899}},{"code":"20246","name":"Metro Bexley North","brand":"Metro Fuel","address":"307-309 BEXLEY RD, BEXLEY NORTH NSW 2207","suburb":"","postcode":"","state":"NSW","lat":-33.939867,"lng":151.114774,"prices":{"DL":2.459,"E10":1.739,"U98":1.999,"U91":1.779}},{"code":"20247","name":"Tabulam Rural Agents","brand":"Independent","address":"8611 BRUXNER HWY, TABULAM NSW 2469","suburb":"","postcode":"","state":"NSW","lat":-28.88739,"lng":152.567833,"prices":{"DL":2.549,"U91":1.998}},{"code":"20248","name":"CALTEX Lavington","brand":"Caltex","address":"481 URANA RD, LAVINGTON NSW 2641","suburb":"","postcode":"","state":"NSW","lat":-36.040031,"lng":146.927122,"prices":{"U95":2.099,"U98":2.199,"PDL":2.699,"U91":1.959}},{"code":"20249","name":"OTR Strathfield","brand":"Shell","address":"9 ALBERT RD, STRATHFIELD NSW 2135","suburb":"","postcode":"","state":"NSW","lat":-33.870803,"lng":151.092355,"prices":{"E10":1.749,"U95":1.949,"U98":2.039,"PDL":2.459,"U91":1.769}},{"code":"20250","name":"Enhance Jugiong","brand":"Enhance","address":"169 Riverside Drive Jugiong NSW 2726","suburb":"","postcode":"","state":"NSW","lat":-34.822155,"lng":148.343062,"prices":{"U98":2.099,"PDL":2.399,"U91":1.899}},{"code":"20251","name":"Mobil Yamba","brand":"Mobil","address":"189 YAMBA RD, YAMBA NSW 2464","suburb":"","postcode":"","state":"NSW","lat":-29.429309,"lng":153.327711,"prices":{"DL":2.499,"E10":1.949,"U98":2.129,"U91":1.969}},{"code":"20252","name":"Metro Petroleum Gilgandra","brand":"Metro Fuel","address":"15-17 CASTLEREAGH ST, GILGANDRA NSW 2827","suburb":"","postcode":"","state":"NSW","lat":-31.716598,"lng":148.658731,"prices":{"DL":2.379,"U98":1.989,"PDL":2.399,"U91":1.809}},{"code":"20253","name":"Ampol Adaminaby","brand":"Ampol","address":"MOBIL SERVICE STATION 5172 SNOWY MOUNTAINS HWY ADAMINABY NSW 2629","suburb":"","postcode":"","state":"NSW","lat":-35.996289,"lng":148.777562,"prices":{"DL":2.529,"U98":2.259,"U91":1.909}},{"code":"20254","name":"METRO PETROLEUM FYSHWICK","brand":"Metro Fuel","address":"MOBIL OUTLET 15 BARRIER ST, FYSHWICK ACT 2609","suburb":"","postcode":"","state":"NSW","lat":-35.329111,"lng":149.172604,"prices":{"E10":1.679,"U98":1.949,"PDL":2.389,"U91":1.719}},{"code":"20255","name":"Inland Petroleum Premer","brand":"Inland Petroleum","address":"Cnr Bomera St & Premer St Premer NSW 2381","suburb":"","postcode":"","state":"NSW","lat":-31.456656,"lng":149.898349,"prices":{"DL":2.499}},{"code":"20256","name":"METRO PETROLEUM, NEWCASTLE WEST","brand":"Metro Fuel","address":"113 PARRY ST, NEWCASTLE WEST NSW 2302","suburb":"","postcode":"","state":"NSW","lat":-32.92557,"lng":151.755799,"prices":{"DL":2.395,"E10":1.875,"U98":2.075,"U91":1.895}},{"code":"20257","name":"METRO PETROLEUM, HAMILTON SOUTH","brand":"Metro Fuel","address":"67 STEWART AV, HAMILTON SOUTH NSW 2303","suburb":"","postcode":"","state":"NSW","lat":-32.932128,"lng":151.753308,"prices":{"DL":2.395,"E10":1.875,"U98":2.075,"U91":1.895}},{"code":"20258","name":"OTR Greystanes","brand":"Shell","address":"661 MERRYLANDS RD, GREYSTANES NSW 2145","suburb":"","postcode":"","state":"NSW","lat":-33.829367,"lng":150.952665,"prices":{"E10":1.749,"U95":1.949,"U98":2.039,"PDL":2.459}},{"code":"20259","name":"OTR Kingsford","brand":"Shell","address":"48 GARDENERS RD, KINGSFORD NSW 2032","suburb":"","postcode":"","state":"NSW","lat":-33.92476,"lng":151.225969,"prices":{"DL":2.459,"E10":1.779,"U98":2.069,"U91":1.799}},{"code":"20260","name":"The Rock Roadhouse","brand":"Independent","address":"652 GOOREENGI RD, NORTH ARM COVE NSW 2324","suburb":"","postcode":"","state":"NSW","lat":-32.61493,"lng":152.080211,"prices":{"E10":1.949,"U98":2.109,"PDL":2.425,"U91":1.969}},{"code":"20261","name":"Metro Hurlstone Park","brand":"Metro Fuel","address":"13 CANTERBURY RD, CANTERBURY NSW 2193","suburb":"","postcode":"","state":"NSW","lat":-33.907813,"lng":151.125233,"prices":{"E10":1.765,"U98":2.045,"PDL":2.395,"U91":1.795}},{"code":"20264","name":"Metro Sunnyholt Road","brand":"Metro Fuel","address":"148 SUNNYHOLT RD, BLACKTOWN NSW 2148","suburb":"","postcode":"","state":"NSW","lat":-33.752893,"lng":150.914813,"prices":{"E10":1.747,"LPG":1.035,"U98":2.017,"PDL":2.447,"U91":1.767}},{"code":"20265","name":"7-Eleven Bonnyrigg Heights","brand":"7-Eleven","address":"620-628 ELIZABETH DR, BONNYRIGG HEIGHTS NSW 2177","suburb":"","postcode":"","state":"NSW","lat":-33.88759,"lng":150.872897,"prices":{"E10":1.799,"U95":1.989,"U98":2.079,"PDL":2.379,"U91":1.819}},{"code":"20266","name":"Enhance Lugarno","brand":"Enhance","address":"1046 FOREST RD, LUGARNO NSW 2210","suburb":"","postcode":"","state":"NSW","lat":-33.97741,"lng":151.046923,"prices":{"E10":1.817,"U98":2.097,"PDL":2.397,"U91":1.887}},{"code":"20268","name":"GTORQUE PETROLEUM","brand":"Independent","address":"104 LINDESAY ST, CAMPBELLTOWN NSW 2560","suburb":"","postcode":"","state":"NSW","lat":-34.065528,"lng":150.825848,"prices":{"DL":2.307,"E10":1.767,"U98":1.937,"PDL":2.307,"U91":1.787}},{"code":"20269","name":"Gulgong Automotive","brand":"Shell","address":"22 STATION ST, GULGONG NSW 2852","suburb":"","postcode":"","state":"NSW","lat":-32.357178,"lng":149.535176,"prices":{"DL":2.499,"U98":2.029,"U91":1.899}},{"code":"20270","name":"Metro Tahmoor","brand":"Metro Fuel","address":"SHOP 1 2790 REMEMBRANCE DVWY, TAHMOOR NSW 2573","suburb":"","postcode":"","state":"NSW","lat":-34.234391,"lng":150.58175,"prices":{"E10":1.789,"U98":2.029,"PDL":2.439,"U91":1.809}},{"code":"20273","name":"Pearl Energy Kooringal","brand":"Pearl Energy","address":"24 LAKE ALBERT RD, KOORINGAL NSW 2650","suburb":"","postcode":"","state":"NSW","lat":-35.122446,"lng":147.376866,"prices":{"U98":2.069,"PDL":2.389,"U91":1.839}},{"code":"20274","name":"Mobil Tamworth West","brand":"Mobil","address":"242-246 BRIDGE ST, WEST TAMWORTH NSW 2340","suburb":"","postcode":"","state":"NSW","lat":-31.095577,"lng":150.912096,"prices":{"E10":1.795,"U95":1.945,"U98":2.045,"PDL":2.395,"U91":1.815}},{"code":"20511","name":"BP Forbes","brand":"BP","address":"CNR JOHNSON & DOWLING STREET Forbes NSW 2871","suburb":"","postcode":"","state":"NSW","lat":-33.38137,"lng":148.0101,"prices":{"DL":2.359,"E10":1.959,"U98":2.199,"U91":1.979}},{"code":"20512","name":"Caltex Forbes Truckstop","brand":"Caltex","address":"Lot 692, Corner Newell Highway, Parkes Road Forbes NSW 2871","suburb":"","postcode":"","state":"NSW","lat":-33.363497,"lng":148.022972,"prices":{"DL":2.359,"E10":1.879,"U98":2.129,"PDL":2.389,"U91":1.909}},{"code":"20513","name":"Metro Petroleum Wangi Wangi","brand":"Metro Fuel","address":"297 WATKINS RD, WANGI WANGI NSW 2267","suburb":"","postcode":"","state":"NSW","lat":-33.070101,"lng":151.587906,"prices":{"DL":2.487,"U98":1.999,"PDL":2.487,"U91":1.819}},{"code":"20514","name":"Metro Bankstown","brand":"Metro Fuel","address":"108 CANTERBURY RD, BANKSTOWN NSW 2200","suburb":"","postcode":"","state":"NSW","lat":-33.93436,"lng":151.0313,"prices":{"DL":2.359,"E10":1.739,"E85":2.059,"U98":1.999,"U91":1.759}},{"code":"20515","name":"Mobil Coolac","brand":"Mobil","address":"495 COOLAC RD, COOLAC NSW 2727","suburb":"","postcode":"","state":"NSW","lat":-34.923011,"lng":148.165732,"prices":{"DL":2.355,"E10":1.745,"U95":1.915,"U98":2.015,"U91":1.765}},{"code":"20516","name":"Caltex Hillvue","brand":"Caltex","address":"464 GOONOO GOONOO RD, HILLVUE NSW 2340","suburb":"","postcode":"","state":"NSW","lat":-31.129862,"lng":150.924575,"prices":{"DL":2.395,"E10":1.795,"U95":1.955,"U98":2.045,"PDL":2.405,"U91":1.815}},{"code":"20519","name":"Metro Petroleum Westleigh","brand":"Metro Fuel","address":"128 DUFFY AV, WESTLEIGH NSW 2120","suburb":"","postcode":"","state":"NSW","lat":-33.720391,"lng":151.068932,"prices":{"U98":1.999,"PDL":2.425,"U91":1.765}},{"code":"20520","name":"7-Eleven Leppington","brand":"7-Eleven","address":"96 RICKARD RD, LEPPINGTON NSW 2179","suburb":"","postcode":"","state":"NSW","lat":-33.962757,"lng":150.807126,"prices":{"E10":1.799,"U95":1.979,"U98":2.069,"PDL":2.459,"U91":1.819}},{"code":"20521","name":"BP Tamworth","brand":"BP","address":"15-21 BRIDGE ST, WEST TAMWORTH NSW 2340","suburb":"","postcode":"","state":"NSW","lat":-31.091493,"lng":150.923298,"prices":{"U98":2.129,"PDL":2.429,"U91":1.889}},{"code":"20522","name":"Shell North Parkes","brand":"Shell","address":"42-46 PEAK HILL RD, PARKES NSW 2870","suburb":"","postcode":"","state":"NSW","lat":-33.122134,"lng":148.17439,"prices":{"LPG":1.299,"U95":2.159,"U98":2.259,"PDL":2.375,"U91":1.989}},{"code":"20523","name":"Shell Jindera","brand":"Shell","address":"99 URANA ST, JINDERA NSW 2642","suburb":"","postcode":"","state":"NSW","lat":-35.954556,"lng":146.889003,"prices":{"DL":2.549,"E10":1.899,"U98":2.129,"U91":1.929}},{"code":"20524","name":"CALTEX JUNCTION HILL","brand":"Caltex","address":"5 CASINO RD, JUNCTION HILL NSW 2460","suburb":"","postcode":"","state":"NSW","lat":-29.645029,"lng":152.926711,"prices":{"U95":2.119,"PDL":2.699,"U91":1.949}},{"code":"20525","name":"Shell Servo Gunnedah","brand":"Shell","address":"1 KAMILAROI HWY, GUNNEDAH NSW 2380","suburb":"","postcode":"","state":"NSW","lat":-30.97322,"lng":150.242139,"prices":{"DL":2.385,"E10":1.785,"U95":1.975,"U98":2.055,"PDL":2.445,"U91":1.825}},{"code":"20526","name":"ENGIE NEXTGEN Car park","brand":"Chargefox","address":"NEXT GEN HEALTH & LIFESTYLE CLUB 1 RIGGALL PL, LYNEHAM ACT 2602","suburb":"","postcode":"","state":"NSW","lat":-35.242689,"lng":149.12861,"prices":{"EV":0.0}},{"code":"20527","name":"ENGIE ANU Fulton Muir car park","brand":"Chargefox","address":"ANU Fulton Muir Building, Daley Road Acton ACT 2601","suburb":"","postcode":"","state":"NSW","lat":-35.273336,"lng":149.120547,"prices":{"EV":0.0}},{"code":"20528","name":"Speedway William Street","brand":"Speedway","address":"2 BLAXCELL ST, GRANVILLE NSW 2142","suburb":"","postcode":"","state":"NSW","lat":-33.836256,"lng":151.011013,"prices":{"DL":2.455,"E10":1.745,"U98":1.975,"U91":1.765}},{"code":"20529","name":"Caltex Braidwood","brand":"Caltex","address":"76 LASCELLES ST, BRAIDWOOD NSW 2622","suburb":"","postcode":"","state":"NSW","lat":-35.446119,"lng":149.802096,"prices":{"DL":2.569,"E10":1.859,"U98":2.159,"PDL":2.569,"U91":1.879}},{"code":"20531","name":"METRO PETROLEUM LAMBTON","brand":"Metro Fuel","address":"111 GRIFFITHS RD, LAMBTON NSW 2299","suburb":"","postcode":"","state":"NSW","lat":-32.910963,"lng":151.717987,"prices":{"E10":1.745,"U98":1.995,"PDL":2.355,"U91":1.805}},{"code":"20532","name":"Thirlmere Fuel & Snack","brand":"Independent","address":"39 OAKS ST, THIRLMERE NSW 2572","suburb":"","postcode":"","state":"NSW","lat":-34.203423,"lng":150.568351,"prices":{"DL":2.498,"U95":1.996,"U91":1.807}},{"code":"20533","name":"The Gerogery Store","brand":"Ampol","address":"4 BENT ST, GEROGERY NSW 2642","suburb":"","postcode":"","state":"NSW","lat":-35.836284,"lng":146.992951,"prices":{"DL":2.8}},{"code":"20535","name":"PEARL ENERGY TARAGO","brand":"Pearl Energy","address":"2 BRAIDWOOD RD, TARAGO NSW 2580","suburb":"","postcode":"","state":"NSW","lat":-35.087021,"lng":149.652346,"prices":{"E10":1.815,"U98":2.065,"PDL":2.435,"U91":1.835}},{"code":"20536","name":"OTR Wetherill Park Horsley Drive","brand":"Shell","address":"1181 THE HORSLEY DRIVE, WETHERILL PARK NSW 2164","suburb":"","postcode":"","state":"NSW","lat":-33.849625,"lng":150.901024,"prices":{"DL":2.459,"E10":1.749,"U95":1.949,"U98":2.039,"U91":1.769}},{"code":"20537","name":"Mobil Peak Hill","brand":"Mobil","address":"112-118 CASWELL ST, PEAK HILL NSW 2869","suburb":"","postcode":"","state":"NSW","lat":-32.726553,"lng":148.191479,"prices":{"E10":1.795,"U98":2.025,"PDL":2.355,"U91":1.815}},{"code":"20538","name":"OTR Jamisontown","brand":"Shell","address":"Mulgoa Rd & Wolseley St Jamisontown NSW 2750","suburb":"","postcode":"","state":"NSW","lat":-33.770212,"lng":150.673986,"prices":{"E10":1.779,"U95":1.979,"U98":2.069,"PDL":2.429,"U91":1.799}},{"code":"20539","name":"Morgan Mudgee","brand":"Independent","address":"7A SYDNEY RD Mudgee NSW 2850","suburb":"","postcode":"","state":"NSW","lat":-32.606606,"lng":149.600164,"prices":{"DL":2.659,"U98":2.369,"U91":2.099}},{"code":"20540","name":"Ajm Smart Pty Ltd","brand":"Caltex","address":"ROSES CAFE 664 SNOWY MOUNTAINS HWY, DAIRYMANS PLAINS NSW 2630","suburb":"","postcode":"","state":"NSW","lat":-36.244919,"lng":149.054888,"prices":{"DL":2.049,"E10":1.629,"U95":2.019,"PDL":2.059,"U91":1.649}},{"code":"20542","name":"Medco Waratah","brand":"Independent","address":"36 LORNA ST, WARATAH NSW 2298","suburb":"","postcode":"","state":"NSW","lat":-32.898667,"lng":151.722278,"prices":{"DL":2.325,"E10":1.745,"U98":1.965,"U91":1.765}},{"code":"20543","name":"PEARL ENERGY EAST MAITLAND","brand":"Pearl Energy","address":"39 MELBOURNE ST, EAST MAITLAND NSW 2323","suburb":"","postcode":"","state":"NSW","lat":-32.74508,"lng":151.58358,"prices":{"E10":1.755,"U98":1.995,"PDL":2.445,"U91":1.775}},{"code":"20544","name":"Enhance Bass Hill","brand":"Enhance","address":"924 HUME HWY, BASS HILL NSW 2197","suburb":"","postcode":"","state":"NSW","lat":-33.897808,"lng":150.994824,"prices":{"E10":1.749,"E85":2.059,"U98":1.899,"PDL":2.289,"U91":1.759}},{"code":"20546","name":"OTR Baulkham Hills","brand":"Shell","address":"SHELL PETROL STATION 363 WINDSOR RD, BAULKHAM HILLS NSW 2153","suburb":"","postcode":"","state":"NSW","lat":-33.760199,"lng":150.991598,"prices":{"E10":1.749,"U95":1.949,"U98":2.039,"PDL":2.459,"U91":1.769}},{"code":"20547","name":"Pearl Energy Wee Waa","brand":"Pearl Energy","address":"168 ROSE ST, WEE WAA NSW 2388","suburb":"","postcode":"","state":"NSW","lat":-30.22229,"lng":149.451827,"prices":{"PDL":2.759,"U91":2.129}},{"code":"20548","name":"OTR Edmondson Park","brand":"Shell","address":"2126 Camden Valley Wy, Edmondson Park NSW 2174","suburb":"","postcode":"","state":"NSW","lat":-33.956747,"lng":150.87294,"prices":{"DL":2.459,"E10":1.779,"U95":1.979,"U98":2.069,"PDL":2.499,"U91":1.799}},{"code":"20549","name":"BP Kurrajong Heights","brand":"BP","address":"1280 BELLS LINE OF ROAD, KURRAJONG HEIGHTS NSW 2758","suburb":"","postcode":"","state":"NSW","lat":-33.528968,"lng":150.630242,"prices":{"U95":1.969,"U98":2.099,"PDL":2.419,"U91":1.799}},{"code":"20550","name":"Costco Auburn (Members only)","brand":"Costco","address":"COSTCO 17-21 PARRAMATTA RD, LIDCOMBE NSW 2141","suburb":"","postcode":"","state":"NSW","lat":-33.848086,"lng":151.049695,"prices":{"E10":1.687,"U98":1.947,"PDL":2.367}},{"code":"20551","name":"OTR Marsden Park North","brand":"Shell","address":"920 RICHMOND RD, MARSDEN PARK NSW 2765","suburb":"","postcode":"","state":"NSW","lat":-33.715694,"lng":150.842625,"prices":{"DL":2.459,"E10":1.749,"U95":1.949,"U98":2.039,"U91":1.769}},{"code":"20552","name":"Pearl Energy Sandy Hollow","brand":"Pearl Energy","address":"1612 MERRIWA RD, SANDY HOLLOW NSW 2333","suburb":"","postcode":"","state":"NSW","lat":-32.334406,"lng":150.566775,"prices":{"U98":2.139,"PDL":2.449,"U91":1.899}},{"code":"20553","name":"OTR Padstow","brand":"Shell","address":"19 DAVIES RD, PADSTOW NSW 2211","suburb":"","postcode":"","state":"NSW","lat":-33.948394,"lng":151.03766,"prices":{"E10":1.749,"U95":1.949,"U98":2.039,"PDL":2.459,"U91":1.769}},{"code":"20554","name":"PLAZA PETROLEUM","brand":"Liberty","address":"100 OCEAN DR, PORT MACQUARIE NSW 2444","suburb":"","postcode":"","state":"NSW","lat":-31.477311,"lng":152.914336,"prices":{"U95":1.999,"U98":2.099,"PDL":2.535,"U91":1.899}},{"code":"20556","name":"Ampol Kurri Kurri","brand":"Ampol","address":"95 NORTHCOTE ST, KURRI KURRI NSW 2327","suburb":"","postcode":"","state":"NSW","lat":-32.812292,"lng":151.475928,"prices":{"DL":2.549,"U98":2.199,"U91":1.959}},{"code":"20557","name":"OTR Rouse Hill","brand":"Shell","address":"43 PANMURE ST, ROUSE HILL NSW 2155","suburb":"","postcode":"","state":"NSW","lat":-33.682823,"lng":150.916423,"prices":{"DL":2.459,"E10":1.749,"U95":1.949,"U98":2.039,"PDL":2.499,"U91":1.769}},{"code":"20558","name":"Budget Petrol","brand":"Budget","address":"365 LIVERPOOL RD, STRATHFIELD NSW 2135","suburb":"","postcode":"","state":"NSW","lat":-33.888277,"lng":151.090551,"prices":{"DL":2.469,"E10":1.767,"U95":1.947,"U98":2.047,"U91":1.787}},{"code":"20559","name":"OTR Pennant Hills East","brand":"Shell","address":"369 PENNANT HILLS RD, PENNANT HILLS NSW 2120","suburb":"","postcode":"","state":"NSW","lat":-33.738773,"lng":151.073757,"prices":{"E10":1.749,"U95":1.949,"U98":2.039,"PDL":2.459,"U91":1.769}},{"code":"20560","name":"OTR Bella Vista","brand":"Shell","address":"24 NORWEST BVD BELLA VISTA NSW 2153","suburb":"","postcode":"","state":"NSW","lat":-33.73908,"lng":150.94861,"prices":{"DL":2.459,"E10":1.749,"U95":1.949,"U98":2.039,"PDL":2.499,"U91":1.769}},{"code":"20561","name":"Little Servo Clunes","brand":"Independent","address":"21 MAIN ST, CLUNES NSW 2480","suburb":"","postcode":"","state":"NSW","lat":-28.732272,"lng":153.405317,"prices":{"DL":2.769,"U95":2.099,"U91":1.989}},{"code":"20562","name":"Metro Petroleum Jannali","brand":"Metro Fuel","address":"97-99 WATTLE RD, JANNALI NSW 2226","suburb":"","postcode":"","state":"NSW","lat":-34.016714,"lng":151.067417,"prices":{"E10":1.747,"U98":2.037,"PDL":2.447,"U91":1.767}},{"code":"20563","name":"Pearl Energy Tweed Heads","brand":"Pearl Energy","address":"61-65 WHARF ST, TWEED HEADS NSW 2485","suburb":"","postcode":"","state":"NSW","lat":-28.172354,"lng":153.54255,"prices":{"E10":1.749,"U95":1.899,"PDL":2.455,"U91":1.769}},{"code":"20564","name":"Astron Lismore","brand":"ASTRON","address":"16 BALLINA RD, LISMORE NSW 2480","suburb":"","postcode":"","state":"NSW","lat":-28.813399,"lng":153.275935,"prices":{"DL":2.419,"U98":2.139,"U91":1.879}},{"code":"20565","name":"Metro Liverpool","brand":"Metro Fuel","address":"64 ORANGE GROVE RD LIVERPOOL NSW 2170","suburb":"","postcode":"","state":"NSW","lat":-33.912293,"lng":150.919592,"prices":{"E10":1.787,"U98":2.057,"PDL":2.439,"U91":1.807}},{"code":"20566","name":"Pearl Energy Londonderry","brand":"Pearl Energy","address":"370-372 CARRINGTON RD, LONDONDERRY NSW 2753","suburb":"","postcode":"","state":"NSW","lat":-33.645306,"lng":150.736093,"prices":{"U98":2.015,"PDL":2.395,"U91":1.795}},{"code":"20567","name":"Ampol Broken Hill Patton St","brand":"Ampol","address":"84 PATTON ST, BROKEN HILL NSW 2880","suburb":"","postcode":"","state":"NSW","lat":-31.981387,"lng":141.458614,"prices":{"DL":2.499,"LPG":1.299,"U98":2.199,"U91":1.899}},{"code":"20570","name":"OTR Ingleburn","brand":"Shell","address":"58 STENNETT RD, INGLEBURN NSW 2565","suburb":"","postcode":"","state":"NSW","lat":-34.004234,"lng":150.841472,"prices":{"DL":2.459,"U95":1.979,"U98":2.069,"U91":1.799}},{"code":"20571","name":"BP Charmhaven","brand":"BP","address":"210 PACIFIC HWY, CHARMHAVEN NSW 2263","suburb":"","postcode":"","state":"NSW","lat":-33.227232,"lng":151.502524,"prices":{"E10":1.859,"LPG":1.199,"U98":2.099,"PDL":2.569,"U91":1.879}},{"code":"20572","name":"Mannering Park Mini Mart","brand":"Independent","address":"70 VALES RD, MANNERING PARK NSW 2259","suburb":"","postcode":"","state":"NSW","lat":-33.152364,"lng":151.537176,"prices":{"DL":2.435,"U98":2.045,"U91":1.795}},{"code":"20573","name":"Caltex Wetherill Park","brand":"Caltex","address":"449 VICTORIA ST, WETHERILL PARK NSW 2164","suburb":"","postcode":"","state":"NSW","lat":-33.844858,"lng":150.892266,"prices":{"DL":2.459,"E10":1.799,"U98":2.089,"PDL":2.479,"U91":1.839}},{"code":"20575","name":"BP ROADHOUSE TEMORA","brand":"BP","address":"193-197 VICTORIA ST, TEMORA NSW 2666","suburb":"","postcode":"","state":"NSW","lat":-34.447493,"lng":147.547225,"prices":{"DL":2.449,"E10":1.919,"U95":2.099,"U98":2.229,"PDL":2.469,"U91":1.929}},{"code":"20576","name":"Mobil Murrurundi","brand":"Mobil","address":"3-7 MAYNE ST, MURRURUNDI NSW 2338","suburb":"","postcode":"","state":"NSW","lat":-31.765823,"lng":150.842704,"prices":{"E10":1.869,"U98":2.129,"PDL":2.349,"U91":1.889}},{"code":"20577","name":"AUS Petroleum Harden","brand":"AUS Petroleum","address":"96 ALBURY ST, HARDEN NSW 2587","suburb":"","postcode":"","state":"NSW","lat":-34.555269,"lng":148.369111,"prices":{"DL":2.249,"E10":1.779,"U98":1.999,"U91":1.799}},{"code":"20578","name":"Pearl Energy Edgeworth","brand":"Pearl Energy","address":"736 MAIN RD, EDGEWORTH NSW 2285","suburb":"","postcode":"","state":"NSW","lat":-32.924416,"lng":151.620569,"prices":{"E10":1.789,"U95":1.939,"PDL":2.425,"U91":1.809}},{"code":"20579","name":"AMPOL MULWALA","brand":"Ampol","address":"78 MCCARTHY ST, MULWALA NSW 2647","suburb":"","postcode":"","state":"NSW","lat":-35.970768,"lng":146.006297,"prices":{"DL":2.599}},{"code":"20580","name":"WL & CJ Medway Dalton Garage","brand":"Metro Fuel","address":"36 GUNNING ST, DALTON NSW 2581","suburb":"","postcode":"","state":"NSW","lat":-34.722051,"lng":149.18059,"prices":{"DL":2.899,"U95":2.669,"U91":2.179}},{"code":"20581","name":"Moruya Ag Horse & Pet","brand":"Ampol","address":"95 CAMPBELL ST, MORUYA NSW 2537","suburb":"","postcode":"","state":"NSW","lat":-35.912803,"lng":150.081955,"prices":{"DL":2.486,"U98":2.431,"U91":2.2}},{"code":"20582","name":"Evie Networks","brand":"Evie Networks","address":"10 MOUAT ST LYNEHAM ACT 2602","suburb":"","postcode":"","state":"NSW","lat":-35.247797,"lng":149.132756,"prices":{"EV":0.0}},{"code":"20583","name":"Metro West Cooma","brand":"Metro Fuel","address":"686 SNOWY MOUNTAINS HWY, DAIRYMANS PLAINS NSW 2630","suburb":"","postcode":"","state":"NSW","lat":-36.24464,"lng":149.053464,"prices":{"DL":2.079,"E10":1.649,"U98":1.869,"PDL":2.079,"U91":1.669}},{"code":"20584","name":"ARKO Energy Dubbo","brand":"Arko Energy","address":"195 Cobra St, Dubbo NSW 2830","suburb":"","postcode":"","state":"NSW","lat":-32.256303,"lng":148.622678,"prices":{"DL":2.415,"E10":1.795,"U98":2.045,"PDL":2.415,"U91":1.815}},{"code":"20585","name":"Metro Heatherbrae Pacific Hwy","brand":"Metro Fuel","address":"2179 PACIFIC HWY, HEATHERBRAE NSW 2324","suburb":"","postcode":"","state":"NSW","lat":-32.795438,"lng":151.720657,"prices":{"E10":1.779,"U98":1.999,"PDL":2.419,"U91":1.799}},{"code":"20586","name":"Caltex East Lynne","brand":"Caltex","address":"3050 PRINCES HWY, EAST LYNNE NSW 2536","suburb":"","postcode":"","state":"NSW","lat":-35.57537,"lng":150.258549,"prices":{"DL":2.509,"U91":1.999}},{"code":"20587","name":"Metro Petroleum Singleton","brand":"Metro Fuel","address":"51-55 GEORGE ST, SINGLETON NSW 2330","suburb":"","postcode":"","state":"NSW","lat":-32.561889,"lng":151.17489,"prices":{"DL":2.415,"E10":1.799,"U98":2.035,"PDL":2.415,"U91":1.819}},{"code":"20588","name":"Mobil Gundagai","brand":"Mobil","address":"223 SHERIDAN ST, GUNDAGAI NSW 2722","suburb":"","postcode":"","state":"NSW","lat":-35.063589,"lng":148.103434,"prices":{"U95":1.915,"PDL":2.395,"U91":1.765}},{"code":"20589","name":"Astron Glen Innes","brand":"ASTRON","address":"102 CHURCH ST, GLEN INNES NSW 2370","suburb":"","postcode":"","state":"NSW","lat":-29.743036,"lng":151.736774,"prices":{"DL":2.598,"E10":2.053,"U95":2.268,"U98":2.078,"U91":2.073}},{"code":"20590","name":"BP Parkes Gateway","brand":"BP","address":"53 WESTLIME RD, PARKES NSW 2870","suburb":"","postcode":"","state":"NSW","lat":-33.131755,"lng":148.151544,"prices":{"DL":2.379,"E10":1.999,"U95":2.179,"U98":2.269,"PDL":2.399}},{"code":"20591","name":"OTR South Nowra","brand":"Shell","address":"198 PRINCES HWY, SOUTH NOWRA NSW 2541","suburb":"","postcode":"","state":"NSW","lat":-34.915547,"lng":150.605511,"prices":{"E10":1.749,"U95":1.949,"U98":2.039,"PDL":2.459,"U91":1.769}},{"code":"20592","name":"OTR Doonside","brand":"Shell","address":"427 BUNGARRIBEE RD, DOONSIDE NSW 2767","suburb":"","postcode":"","state":"NSW","lat":-33.772895,"lng":150.876244,"prices":{"E10":1.749,"U95":1.949,"U98":2.039,"PDL":2.459,"U91":1.769}},{"code":"20593","name":"Speedway GroseVale","brand":"Speedway","address":"SHOP 3 659 GROSE VALE RD, GROSE VALE NSW 2753","suburb":"","postcode":"","state":"NSW","lat":-33.582253,"lng":150.660758,"prices":{"DL":2.439,"E10":1.799,"U98":2.099,"U91":1.819}},{"code":"20594","name":"OTR Willoughby","brand":"Shell","address":"616-626 WILLOUGHBY RD, WILLOUGHBY NSW 2068","suburb":"","postcode":"","state":"NSW","lat":-33.805911,"lng":151.198819,"prices":{"E10":1.749,"U95":1.949,"U98":2.039,"PDL":2.459,"U91":1.769}},{"code":"20595","name":"Bribbaree servo","brand":"Bribbaree Servo","address":"4006 BRIBBAREE RD, BRIBBAREE NSW 2594","suburb":"","postcode":"","state":"NSW","lat":-34.120977,"lng":147.881443,"prices":{"DL":3.24,"U98":2.34}},{"code":"20596","name":"OTR Casula Inbound","brand":"Shell","address":"629 HUME HWY, CASULA NSW 2170","suburb":"","postcode":"","state":"NSW","lat":-33.955492,"lng":150.892906,"prices":{"E10":1.779,"U95":1.979,"U98":2.069,"PDL":2.459,"U91":1.799}},{"code":"20597","name":"Mobil Bomaderry","brand":"Mobil","address":"33 BOLONG RD, BOMADERRY NSW 2541","suburb":"","postcode":"","state":"NSW","lat":-34.85549,"lng":150.6105,"prices":{"DL":2.389,"E10":1.765,"U98":1.995,"U91":1.785}},{"code":"20598","name":"IOR Bathurst (Self- Serve)","brand":"IOR Group","address":"57 HAMPDEN PARK RD, KELSO NSW 2795","suburb":"","postcode":"","state":"NSW","lat":-33.42809,"lng":149.625484,"prices":{"DL":2.609}},{"code":"20599","name":"IOR Beresfield (Self-Serve)","brand":"IOR Group","address":"4 YILEN CL, BERESFIELD NSW 2322","suburb":"","postcode":"","state":"NSW","lat":-32.809424,"lng":151.625798,"prices":{"DL":2.599}},{"code":"20600","name":"IOR Coonamble (Self-Serve)","brand":"IOR Group","address":"10 HOOPER DR, COONAMBLE NSW 2829","suburb":"","postcode":"","state":"NSW","lat":-30.944653,"lng":148.37687,"prices":{"DL":2.729}},{"code":"20601","name":"OTR Kooragang","brand":"Shell","address":"130 CORMORANT RD, KOORAGANG NSW 2304","suburb":"","postcode":"","state":"NSW","lat":-32.883436,"lng":151.762023,"prices":{"DL":2.429,"E10":1.779,"U95":1.979,"U98":2.069,"PDL":2.469,"U91":1.799}},{"code":"20602","name":"IOR Dubbo (Self-Serve)","brand":"IOR Group","address":"31 PURVIS LANE, DUBBO NSW 2830","suburb":"","postcode":"","state":"NSW","lat":-32.22283,"lng":148.62591,"prices":{"DL":2.639}},{"code":"20603","name":"IOR Gilgandra (Self-Serve)","brand":"IOR Group","address":"84 MILLER ST, GILGANDRA NSW 2827","suburb":"","postcode":"","state":"NSW","lat":-31.70915,"lng":148.67157,"prices":{"DL":2.649}},{"code":"20604","name":"IOR Gundagai (Self-Serve)","brand":"IOR Group","address":"121 MOUNT ST, SOUTH GUNDAGAI NSW 2722","suburb":"","postcode":"","state":"NSW","lat":-35.082961,"lng":148.093612,"prices":{"DL":2.619}},{"code":"20605","name":"Liberty South West Rocks","brand":"Liberty","address":"102 GREGORY ST, SOUTH WEST ROCKS NSW 2431","suburb":"","postcode":"","state":"NSW","lat":-30.894622,"lng":153.040664,"prices":{"DL":2.599,"U95":2.059,"U91":1.959}},{"code":"20606","name":"Metro Sefton","brand":"Metro Fuel","address":"101 HECTOR ST, SEFTON NSW 2162","suburb":"","postcode":"","state":"NSW","lat":-33.884126,"lng":151.007052,"prices":{"DL":2.539,"U95":1.999,"U91":1.799}},{"code":"20607","name":"Astron Taree Depot","brand":"ASTRON","address":"85 MULDOON ST, TAREE NSW 2430","suburb":"","postcode":"","state":"NSW","lat":-31.897533,"lng":152.450952,"prices":{"DL":2.519,"E10":1.899}},{"code":"20608","name":"Mobil Kalander St Nowra","brand":"Mobil","address":"MOBIL SERVICE STATION 112 KALANDAR ST, NOWRA NSW 2541","suburb":"","postcode":"","state":"NSW","lat":-34.888601,"lng":150.609363,"prices":{"DL":2.389,"E10":1.765,"U98":1.995,"U91":1.785}},{"code":"20609","name":"IOR Moree (Self-Serve)","brand":"IOR Group","address":"14 KURRAJONG ST, MOREE NSW 2400","suburb":"","postcode":"","state":"NSW","lat":-29.493353,"lng":149.859638,"prices":{"DL":2.639}},{"code":"20610","name":"IOR Narrabri (Self- Serve)","brand":"IOR Group","address":"66-74 FRANCIS ST, NARRABRI NSW 2390","suburb":"","postcode":"","state":"NSW","lat":-30.31122,"lng":149.784397,"prices":{"DL":2.649}},{"code":"20611","name":"IOR Packsaddle (Self-Serve)","brand":"IOR Group","address":"17242 SILVER CITY HWY Packsaddle NSW 2880","suburb":"","postcode":"","state":"NSW","lat":-30.610377,"lng":141.966736,"prices":{"DL":2.689}},{"code":"20612","name":"IOR Quambone (Self Serve)","brand":"IOR Group","address":"Yarea St, Quambone NSW 2831","suburb":"","postcode":"","state":"NSW","lat":-30.932884,"lng":147.869155,"prices":{"DL":2.669}},{"code":"20613","name":"IOR South Kempsey (Self- serve)","brand":"IOR Group","address":"15 ZYLPHA DR, SOUTH KEMPSEY NSW 2440","suburb":"","postcode":"","state":"NSW","lat":-31.128463,"lng":152.83042,"prices":{"DL":2.619}},{"code":"20614","name":"IOR Tamworth (Self- Serve)","brand":"IOR Group","address":"15 GODDARD LANE, WESTDALE NSW 2340","suburb":"","postcode":"","state":"NSW","lat":-31.078458,"lng":150.857102,"prices":{"DL":2.619}},{"code":"20615","name":"IOR Tibooburra (Self- Serve)","brand":"IOR Group","address":"49 BRISCOE ST, TIBOOBURRA NSW 2880","suburb":"","postcode":"","state":"NSW","lat":-29.430008,"lng":142.011489,"prices":{"DL":2.839}},{"code":"20616","name":"IOR Tilpa (Self Serve)","brand":"IOR Group","address":"Tilpa-Tonga Rd &, W Tilpa Rd, TILPA NSW 2840","suburb":"","postcode":"","state":"NSW","lat":-30.935605,"lng":144.417926,"prices":{"DL":2.729}},{"code":"20617","name":"IOR Walgett (Self Serve)","brand":"IOR Group","address":"158 PEEL ST, WALGETT NSW 2832","suburb":"","postcode":"","state":"NSW","lat":-30.03212,"lng":148.111623,"prices":{"DL":2.959}},{"code":"20618","name":"IOR West Wyalong (Self-Serve)","brand":"IOR Group","address":"34 SHOWGROUND RD, WEST WYALONG NSW 2671","suburb":"","postcode":"","state":"NSW","lat":-33.924269,"lng":147.194568,"prices":{"DL":2.639}},{"code":"20619","name":"Pearl Energy Picton","brand":"Pearl Energy","address":"425 ARGYLE ST, PICTON NSW 2571","suburb":"","postcode":"","state":"NSW","lat":-34.190267,"lng":150.603968,"prices":{"E10":1.775,"U95":1.925,"U98":2.025,"PDL":2.425,"U91":1.795}},{"code":"20620","name":"TANILBA BAY SERVO","brand":"Independent","address":"1063 LEMON TREE PASSAGE RD, TANILBA BAY NSW 2319","suburb":"","postcode":"","state":"NSW","lat":-32.736205,"lng":152.001298,"prices":{"DL":2.445,"E10":1.795,"U98":2.015,"U91":1.815}},{"code":"20621","name":"BP Somersby Truck Stop","brand":"BP","address":"51 SMITHS RD, SOMERSBY NSW 2250","suburb":"","postcode":"","state":"NSW","lat":-33.357155,"lng":151.287868,"prices":{"DL":2.499,"E10":1.879,"U98":2.109,"PDL":2.599,"U91":1.899}},{"code":"20622","name":"Pearl Energy Long Jetty","brand":"Pearl Energy","address":"431 THE ENTRANCE ROAD, LONG JETTY NSW 2261","suburb":"","postcode":"","state":"NSW","lat":-33.36025,"lng":151.482712,"prices":{"E10":1.765,"U95":1.915,"U98":2.015,"PDL":2.415,"U91":1.785}},{"code":"20623","name":"OTR Corrimal","brand":"Shell","address":"269-273 PRINCES HWY, CORRIMAL NSW 2518","suburb":"","postcode":"","state":"NSW","lat":-34.374472,"lng":150.896329,"prices":{"E10":1.749,"U95":1.949,"U98":2.039,"PDL":2.459,"U91":1.769}},{"code":"20624","name":"IOR Inverell","brand":"IOR Group","address":"375 YETMAN RD, INVERELL NSW 2360","suburb":"","postcode":"","state":"NSW","lat":-29.746192,"lng":151.103151,"prices":{"DL":2.639}},{"code":"20625","name":"OTR Ropes Crossing","brand":"Shell","address":"306 WIANAMATTA PWY, ROPES CROSSING NSW 2760","suburb":"","postcode":"","state":"NSW","lat":-33.732711,"lng":150.778922,"prices":{"E10":1.749,"U95":1.949,"U98":2.039,"PDL":2.459,"U91":1.769}},{"code":"20626","name":"OTR Kirrawee","brand":"Shell","address":"470 PRINCES HWY, GYMEA NSW 2227","suburb":"","postcode":"","state":"NSW","lat":-34.027401,"lng":151.084449,"prices":{"E10":1.749,"U95":1.949,"U98":2.039,"PDL":2.459,"U91":1.769}},{"code":"20627","name":"Metro Werrington","brand":"Metro Fuel","address":"569 GREAT WESTERN HWY, WERRINGTON NSW 2747","suburb":"","postcode":"","state":"NSW","lat":-33.768067,"lng":150.758376,"prices":{"E10":1.769,"U95":1.899,"U98":1.999,"PDL":2.395,"U91":1.789}},{"code":"20628","name":"Kiah General Store","brand":"Independent","address":"4 KIAH STORE RD, KIAH NSW 2551","suburb":"","postcode":"","state":"NSW","lat":-37.157528,"lng":149.856382,"prices":{"DL":2.799,"U98":2.359,"PDL":2.799,"U91":2.069}},{"code":"20629","name":"OTR Hastings Point","brand":"Shell","address":"99 TWEED COAST RD, BOGANGAR NSW 2488","suburb":"","postcode":"","state":"NSW","lat":-28.369168,"lng":153.572588,"prices":{"U95":1.979,"U98":2.069,"PDL":2.459,"U91":1.799}},{"code":"20630","name":"OTR Pennant Hills West","brand":"Shell","address":"386 PENNANT HILLS RD, PENNANT HILLS NSW 2120","suburb":"","postcode":"","state":"NSW","lat":-33.739229,"lng":151.067952,"prices":{"E10":1.749,"U95":1.949,"U98":2.039,"PDL":2.459,"U91":1.769}},{"code":"20631","name":"Metro Revesby","brand":"Metro Fuel","address":"6 DOYLE RD, REVESBY NSW 2212","suburb":"","postcode":"","state":"NSW","lat":-33.945827,"lng":151.01869,"prices":{"E10":1.779,"U98":1.999,"PDL":2.599,"U91":1.799}},{"code":"20632","name":"Budget Bexley South","brand":"Budget","address":"474 FOREST RD, BEXLEY NSW 2207","suburb":"","postcode":"","state":"NSW","lat":-33.951599,"lng":151.125234,"prices":{"E10":1.755,"LPG":1.059,"U95":1.978,"U98":2.029,"PDL":2.455,"U91":1.799}},{"code":"20633","name":"OTR Waterloo","brand":"Shell","address":"867-869 SOUTH DOWLING ST, WATERLOO NSW 2017","suburb":"","postcode":"","state":"NSW","lat":-33.901856,"lng":151.214387,"prices":{"E10":1.749,"U95":1.949,"U98":2.039,"PDL":2.459,"U91":1.769}},{"code":"20634","name":"OTR Nowra Kinghorne Street","brand":"Shell","address":"73 KINGHORNE ST, NOWRA NSW 2541","suburb":"","postcode":"","state":"NSW","lat":-34.878316,"lng":150.602034,"prices":{"E10":1.779,"U98":2.069,"PDL":2.459,"U91":1.799}},{"code":"20636","name":"LIBERTY BOGGABILLA","brand":"Liberty","address":"33351 NEWELL HWY BOGGABILLA NSW 2409","suburb":"","postcode":"","state":"NSW","lat":-28.608762,"lng":150.35108,"prices":{"DL":2.335,"E10":1.419,"U98":1.689,"U91":1.459}},{"code":"20637","name":"ARKO Earlwood","brand":"Arko Energy","address":"108 HOMER ST, EARLWOOD NSW 2206","suburb":"","postcode":"","state":"NSW","lat":-33.924048,"lng":151.135875,"prices":{"U98":1.955,"PDL":2.345,"U91":1.705}},{"code":"20638","name":"OTR Blacktown","brand":"Shell","address":"132 SUNNYHOLT RD, BLACKTOWN NSW 2148","suburb":"","postcode":"","state":"NSW","lat":-33.754076,"lng":150.914568,"prices":{"E10":1.749,"U95":1.949,"U98":2.039,"PDL":2.459,"U91":1.769}},{"code":"20639","name":"TASCO Trentham Cliffs","brand":"Ampol","address":"TRENTHAM CLIFFS CARAVAN PARK 6603 STURT HWY, TRENTHAM CLIFFS NSW 2738","suburb":"","postcode":"","state":"NSW","lat":-34.224963,"lng":142.247358,"prices":{"DL":2.499,"U95":2.149,"U98":2.229,"PDL":2.529,"U91":1.999}},{"code":"20640","name":"Astron Michelago","brand":"ASTRON","address":"1 RYRIE ST, MICHELAGO NSW 2620","suburb":"","postcode":"","state":"NSW","lat":-35.703453,"lng":149.160748,"prices":{"DL":2.599,"E10":1.989,"LPG":1.299,"U95":2.249,"U98":2.349,"U91":1.999}},{"code":"20641","name":"ASTRON Bathurst","brand":"ASTRON","address":"35 WILLIAM ST, BATHURST NSW 2795","suburb":"","postcode":"","state":"NSW","lat":-33.415998,"lng":149.582965,"prices":{"DL":2.375,"E10":1.795,"U95":2.035,"U98":2.035,"U91":1.815}},{"code":"20642","name":"Shell Tooleybuc","brand":"Shell","address":"78 MURRAY ST, TOOLEYBUC NSW 2736","suburb":"","postcode":"","state":"NSW","lat":-35.028004,"lng":143.336318,"prices":{"DL":2.469,"U98":2.149,"U91":1.949}},{"code":"20643","name":"OTR Greenacre West","brand":"Shell","address":"74 ROBERTS RD, GREENACRE NSW 2190","suburb":"","postcode":"","state":"NSW","lat":-33.892324,"lng":151.066307,"prices":{"E10":1.779,"U95":1.979,"U98":2.069,"PDL":2.459,"U91":1.799}},{"code":"20644","name":"BP Marina","brand":"BP","address":"26 SKINNER ST, SOUTH GRAFTON NSW 2460","suburb":"","postcode":"","state":"NSW","lat":-29.701935,"lng":152.934951,"prices":{"DL":2.495,"U95":1.985,"U98":2.085,"PDL":2.525,"U91":1.815}},{"code":"20646","name":"The Little General Newrybar","brand":"Liberty","address":"14 OLD PACIFIC HWY, NEWRYBAR NSW 2479","suburb":"","postcode":"","state":"NSW","lat":-28.721519,"lng":153.530493,"prices":{"DL":2.602,"U91":2.183}},{"code":"20647","name":"Ampol Wellington","brand":"Ampol","address":"145 ARTHUR ST, WELLINGTON NSW 2820","suburb":"","postcode":"","state":"NSW","lat":-32.562383,"lng":148.943055,"prices":{"DL":2.435,"U95":2.105,"U98":2.165,"PDL":2.455,"U91":1.975}},{"code":"20648","name":"Mobil North Nowra","brand":"Mobil 1 Carlingford Car Care","address":"MOBIL NORTH NOWRA SERVICE STATION 172 ILLAROO RD, NORTH NOWRA NSW 2541","suburb":"","postcode":"","state":"NSW","lat":-34.857696,"lng":150.583156,"prices":{"U95":1.895,"U98":1.995,"PDL":2.389,"U91":1.785}},{"code":"20649","name":"SHELL NORTH ROCKS","brand":"Shell","address":"264 NORTH ROCKS RD, NORTH ROCKS NSW 2151","suburb":"","postcode":"","state":"NSW","lat":-33.77511,"lng":151.022676,"prices":{"DL":2.395,"E10":1.755,"U98":2.015,"PDL":2.395,"U91":1.775}},{"code":"20650","name":"Ampol Narwee","brand":"Ampol","address":"41 BROADARROW RD, NARWEE NSW 2209","suburb":"","postcode":"","state":"NSW","lat":-33.948149,"lng":151.070973,"prices":{"E10":2.179,"U95":2.299,"U98":2.399,"PDL":2.479,"U91":2.199}},{"code":"20651","name":"Metro Marsden Park Truck Stop","brand":"Metro Fuel","address":"365 GARFIELD RD WEST, MARSDEN PARK NSW 2765","suburb":"","postcode":"","state":"NSW","lat":-33.697401,"lng":150.833541,"prices":{"DL":2.419,"U95":1.877,"U98":1.977,"PDL":2.429,"U91":1.767}},{"code":"20652","name":"OTR Hurstville","brand":"Shell","address":"396 FOREST RD, HURSTVILLE NSW 2220","suburb":"","postcode":"","state":"NSW","lat":-33.964838,"lng":151.099502,"prices":{"E10":1.749,"U95":1.949,"U98":2.039,"PDL":2.459,"U91":1.769}},{"code":"20653","name":"OTR Kariong","brand":"Shell","address":"6-8 CENTRAL COAST HWY, KARIONG NSW 2250","suburb":"","postcode":"","state":"NSW","lat":-33.434364,"lng":151.296382,"prices":{"E10":1.749,"U95":1.949,"U98":2.039,"PDL":2.429,"U91":1.769}},{"code":"20654","name":"7-Eleven Googong","brand":"7-Eleven","address":"200 WELLSVALE DR, GOOGONG NSW 2620","suburb":"","postcode":"","state":"NSW","lat":-35.42681,"lng":149.227891,"prices":{"E10":1.819,"U95":1.999,"U98":2.089,"PDL":2.539,"U91":1.839}},{"code":"20655","name":"Enhance Port Kembla","brand":"Enhance","address":"1-3 CHURCH ST, PORT KEMBLA NSW 2505","suburb":"","postcode":"","state":"NSW","lat":-34.484568,"lng":150.904006,"prices":{"E10":1.799,"U98":2.069,"PDL":2.359,"U91":1.819}},{"code":"20656","name":"7-Eleven Rouse Hill","brand":"7-Eleven","address":"294 ANNANGROVE RD, ROUSE HILL NSW 2155","suburb":"","postcode":"","state":"NSW","lat":-33.662153,"lng":150.922971,"prices":{"E10":1.739,"U95":1.939,"U98":2.029,"PDL":2.455,"U91":1.759}},{"code":"20657","name":"OTR Goulburn","brand":"Shell","address":"1 FRANKLIN ST, GOULBURN NSW 2580","suburb":"","postcode":"","state":"NSW","lat":-34.731851,"lng":149.7056,"prices":{"E10":1.749,"U95":1.949,"U98":2.039,"PDL":2.459,"U91":1.769}},{"code":"20811","name":"Pearl Energy Hexham","brand":"Pearl Energy","address":"354 MAITLAND RD, HEXHAM NSW 2322","suburb":"","postcode":"","state":"NSW","lat":-32.829469,"lng":151.685607,"prices":{"E10":1.745,"U98":1.965,"PDL":2.355,"U91":1.765}},{"code":"20813","name":"WESTSIDE PETROLEUM BUNDANOON","brand":"Westside","address":"61 RAILWAY AV, BUNDANOON NSW 2578","suburb":"","postcode":"","state":"NSW","lat":-34.655517,"lng":150.303879,"prices":{"DL":2.499,"E10":1.799,"U98":2.079,"U91":1.839}},{"code":"20814","name":"Metro Petroleum Warilla","brand":"Metro Fuel","address":"230 SHELLHARBOUR RD, WARILLA NSW 2528","suburb":"","postcode":"","state":"NSW","lat":-34.556988,"lng":150.859245,"prices":{"E10":1.799,"U98":1.999,"PDL":2.319,"U91":1.799}},{"code":"20815","name":"Caltex Tomingley","brand":"Caltex","address":"10-12 MERILBA ST, TOMINGLEY NSW 2869","suburb":"","postcode":"","state":"NSW","lat":-32.572398,"lng":148.222729,"prices":{"DL":2.355,"U95":1.915,"U98":2.015,"PDL":2.359,"U91":1.815}},{"code":"20816","name":"Shell Bermagui","brand":"Shell","address":"2 BUNGA ST, BERMAGUI NSW 2546","suburb":"","postcode":"","state":"NSW","lat":-36.427341,"lng":150.07593,"prices":{"DL":2.549,"U98":2.299,"U91":1.999}},{"code":"20817","name":"NRMA -Braidwood Servicemens Club & Golf Course","brand":"NRMA","address":"15 VICTORY ST, BRAIDWOOD NSW 2622","suburb":"","postcode":"","state":"NSW","lat":-35.442201,"lng":149.788538,"prices":{"EV":0.0}},{"code":"20818","name":"NRMA - Lowe St","brand":"NRMA","address":"LOWE ST CARPARK 50 LOWE ST, QUEANBEYAN NSW 2620","suburb":"","postcode":"","state":"NSW","lat":-35.354838,"lng":149.233036,"prices":{"EV":0.0}},{"code":"20819","name":"Metro Petroleum Addison Rd","brand":"Metro Fuel","address":"93-99 ADDISON RD, MARRICKVILLE NSW 2204","suburb":"","postcode":"","state":"NSW","lat":-33.902431,"lng":151.164548,"prices":{"E10":1.755,"PDL":2.479,"U91":1.789}},{"code":"20820","name":"Astron Rydalmere","brand":"ASTRON","address":"262 - 272 VICTORIA RD Rydalmere NSW 2116","suburb":"","postcode":"","state":"NSW","lat":-33.810076,"lng":151.032389,"prices":{"DL":2.429,"E10":1.729,"E85":2.199,"LPG":1.199,"U95":1.915,"U98":1.995,"U91":1.749}},{"code":"20822","name":"Barrington General Store","brand":"Independent","address":"12 ARGYLE ST, BARRINGTON NSW 2422","suburb":"","postcode":"","state":"NSW","lat":-31.973863,"lng":151.911958,"prices":{"DL":2.429,"U95":2.189,"U91":2.069}},{"code":"20823","name":"Metro Petroleum Revesby West","brand":"Metro Fuel","address":"10 MILPERRA RD, REVESBY NSW 2212","suburb":"","postcode":"","state":"NSW","lat":-33.938371,"lng":151.017192,"prices":{"DL":2.359,"E10":1.759,"U98":1.999,"PDL":2.379,"U91":1.779}},{"code":"20824","name":"AMPOL KENTHURST","brand":"Ampol","address":"137 KENTHURST RD, KENTHURST NSW 2156","suburb":"","postcode":"","state":"NSW","lat":-33.660452,"lng":151.005933,"prices":{"U95":1.979,"U98":2.059,"PDL":2.469,"U91":1.789}},{"code":"20825","name":"Caltex Moree","brand":"Caltex","address":"3 BLUEBERRY RD, MOREE NSW 2400","suburb":"","postcode":"","state":"NSW","lat":-29.490788,"lng":149.850259,"prices":{"DL":2.499,"E10":1.799,"U98":2.099,"PDL":2.529,"U91":1.819}},{"code":"20826","name":"Roo Petroleum Lavington (24Hr Self-Serve)","brand":"Roo Petroleum","address":"370 GRIFFITH RD, LAVINGTON NSW 2641","suburb":"","postcode":"","state":"NSW","lat":-36.048249,"lng":146.937412,"prices":{"DL":2.415,"U95":1.915,"U98":2.045,"U91":1.835}},{"code":"20827","name":"Metro Truck Stop Barham","brand":"Metro Fuel","address":"2-4 MOULAMEIN RD, BARHAM NSW 2732","suburb":"","postcode":"","state":"NSW","lat":-35.623909,"lng":144.128963,"prices":{"DL":2.497,"U98":2.397,"PDL":2.497,"U91":1.997}},{"code":"20828","name":"Woodham Petroleum Orange","brand":"Independent","address":"91-93 ELSHAM AV, ORANGE NSW 2800","suburb":"","postcode":"","state":"NSW","lat":-33.308624,"lng":149.106243,"prices":{"DL":2.499,"U95":2.089,"U91":1.789}},{"code":"20829","name":"BP Gilgandra","brand":"BP","address":"13 CASTLEREAGH ST, GILGANDRA NSW 2827","suburb":"","postcode":"","state":"NSW","lat":-31.717168,"lng":148.658179,"prices":{"DL":2.379,"U95":1.989,"U91":1.869}},{"code":"20830","name":"Pearl Energy Tomago","brand":"Pearl Energy","address":"793 TOMAGO RD, TOMAGO NSW 2322","suburb":"","postcode":"","state":"NSW","lat":-32.821351,"lng":151.699354,"prices":{"E10":1.745,"U95":1.885,"U98":1.965,"PDL":2.355,"U91":1.765}},{"code":"20831","name":"ASTRON YAGOONA WEST","brand":"ASTRON","address":"100 ROOKWOOD RD, YAGOONA NSW 2199","suburb":"","postcode":"","state":"NSW","lat":-33.899293,"lng":151.036862,"prices":{"DL":2.389,"E10":1.735,"E85":2.059,"LPG":1.149,"U98":1.999,"U91":1.755}},{"code":"20832","name":"OTR Woolloomooloo","brand":"Shell","address":"61 COWPER WHARF ROADWAY, WOOLLOOMOOLOO NSW 2011","suburb":"","postcode":"","state":"NSW","lat":-33.869601,"lng":151.221314,"prices":{"E10":1.749,"U95":1.949,"U98":2.039,"PDL":2.459,"U91":1.769}},{"code":"20833","name":"Metro Petroleum Ingleburn","brand":"Metro Fuel","address":"21-23 CUMBERLAND RD, INGLEBURN NSW 2565","suburb":"","postcode":"","state":"NSW","lat":-33.996645,"lng":150.871184,"prices":{"E10":1.765,"U98":1.985,"PDL":2.375,"U91":1.785}},{"code":"20834","name":"Mobil Jennings","brand":"Mobil","address":"1823 NEW ENGLAND HWY, JENNINGS NSW 4383","suburb":"","postcode":"","state":"NSW","lat":-28.932032,"lng":151.926083,"prices":{"DL":2.295,"E10":1.755,"U98":1.995,"U91":1.775}},{"code":"20835","name":"BP TULLAMORE","brand":"BP","address":"23 CARDIGAN ST, TULLAMORE NSW 2874","suburb":"","postcode":"","state":"NSW","lat":-32.632844,"lng":147.564477,"prices":{"DL":2.699,"U95":2.259,"U91":2.099}},{"code":"20836","name":"SHELL UNANDERRA","brand":"Shell","address":"40 PRINCES HWY, UNANDERRA NSW 2526","suburb":"","postcode":"","state":"NSW","lat":-34.451931,"lng":150.846984,"prices":{"DL":2.497,"E10":1.857,"U95":2.037,"U98":2.137,"PDL":2.517,"U91":1.877}},{"code":"20838","name":"Caltex Marulan","brand":"Caltex","address":"84-90 GEORGE ST, MARULAN NSW 2579","suburb":"","postcode":"","state":"NSW","lat":-34.708406,"lng":150.008593,"prices":{"DL":2.379,"E10":1.979,"U98":2.299,"PDL":2.389,"U91":1.999}},{"code":"20839","name":"Astron Orange-Peisley Street","brand":"ASTRON","address":"176-178 PEISLEY ST, ORANGE NSW 2800","suburb":"","postcode":"","state":"NSW","lat":-33.285254,"lng":149.103726,"prices":{"DL":2.479,"E10":1.795,"E85":2.065,"U95":1.965,"U98":2.065,"U91":1.835}},{"code":"20840","name":"Astron Marrangaroo","brand":"ASTRON","address":"394 GREAT WESTERN HWY, MARRANGAROO NSW 2790","suburb":"","postcode":"","state":"NSW","lat":-33.452361,"lng":150.117512,"prices":{"DL":2.449,"E10":1.815,"LPG":1.289,"U98":2.055,"U91":1.835}},{"code":"20841","name":"Metro Milperra West","brand":"Metro Fuel","address":"106 MILPERRA RD, REVESBY NSW 2212","suburb":"","postcode":"","state":"NSW","lat":-33.935615,"lng":151.008715,"prices":{"DL":2.419,"E10":1.759,"U98":1.999,"PDL":2.449,"U91":1.779}},{"code":"20842","name":"Bonalbo Petrol and General Store","brand":"Independent","address":"62 WOODENBONG RD, BONALBO NSW 2469","suburb":"","postcode":"","state":"NSW","lat":-28.735893,"lng":152.62257,"prices":{"DL":2.575,"U91":2.148}},{"code":"20843","name":"Rand Farm Supplies","brand":"Liberty","address":"37-39 KINDRA ST, RAND NSW 2642","suburb":"","postcode":"","state":"NSW","lat":-35.593649,"lng":146.580226,"prices":{"DL":2.95,"U91":2.2}},{"code":"20845","name":"OTR Warrawong Northbound","brand":"Shell","address":"26-30 KING ST, WARRAWONG NSW 2502","suburb":"","postcode":"","state":"NSW","lat":-34.482786,"lng":150.886932,"prices":{"E10":1.779,"U95":1.979,"U98":2.069,"PDL":2.459,"U91":1.799}},{"code":"20846","name":"Astron Grafton Fourways","brand":"ASTRON","address":"105 BENT ST, SOUTH GRAFTON NSW 2460","suburb":"","postcode":"","state":"NSW","lat":-29.706855,"lng":152.939793,"prices":{"DL":2.477,"E10":1.867,"U98":2.087,"U91":1.877}},{"code":"20847","name":"Metro Lansdowne","brand":"Metro Fuel","address":"987 HUME HWY, LANSDOWNE NSW 2163","suburb":"","postcode":"","state":"NSW","lat":-33.889304,"lng":150.971023,"prices":{"DL":2.289,"E10":1.749,"U95":1.829,"U98":1.899,"PDL":2.399,"U91":1.759}},{"code":"20848","name":"Metro Toongabbie","brand":"Metro Fuel","address":"5 PICASSO CR, OLD TOONGABBIE NSW 2146","suburb":"","postcode":"","state":"NSW","lat":-33.786361,"lng":150.967341,"prices":{"E10":1.779,"U98":2.039,"PDL":2.459,"U91":1.799}},{"code":"20849","name":"IOR Glen Innes","brand":"IOR Group","address":"5 KILKENNY PL, GLEN INNES NSW 2370","suburb":"","postcode":"","state":"NSW","lat":-29.731136,"lng":151.740699,"prices":{"DL":2.637}},{"code":"20852","name":"CALTEX ADAMINABY","brand":"Caltex","address":"BP SERVICE STATION 5243 SNOWY MOUNTAINS HWY, ADAMINABY NSW 2629","suburb":"","postcode":"","state":"NSW","lat":-35.997064,"lng":148.770111,"prices":{"DL":2.489,"U98":2.239,"PDL":2.489,"U91":1.889}},{"code":"20854","name":"Riordan Fuels","brand":"Independent","address":"Corner Barham Road and Calimo Street Deniliquin NSW 2710","suburb":"","postcode":"","state":"NSW","lat":-35.53824,"lng":144.94259,"prices":{"DL":2.519}},{"code":"20855","name":"Liberty Oil Griffith","brand":"Liberty","address":"6-10 MACKAY AV, GRIFFITH NSW 2680","suburb":"","postcode":"","state":"NSW","lat":-34.291004,"lng":146.063824,"prices":{"DL":2.459,"E10":1.759,"U95":1.949,"U98":2.029,"PDL":2.489,"U91":1.799}},{"code":"20856","name":"Riordan Fuels","brand":"Independent","address":"190 HILLSIDE RD, MOAMA NSW 2731","suburb":"","postcode":"","state":"NSW","lat":-36.043773,"lng":144.734171,"prices":{"DL":2.559}},{"code":"20857","name":"Riordan Fuels","brand":"Independent","address":"6030 NEWELL HWY, JERILDERIE NSW 2716","suburb":"","postcode":"","state":"NSW","lat":-35.345613,"lng":145.759086,"prices":{"DL":2.559}},{"code":"20004","name":"Brooklyn Central","brand":"Independent","address":"81 BROOKLYN RD, BROOKLYN NSW 2083","suburb":"","postcode":"","state":"NSW","lat":-33.547912,"lng":151.208197,"prices":{"U95":2.349,"U91":2.199}},{"code":"20858","name":"Ampol Castlereagh","brand":"Ampol","address":"1141 CASTLEREAGH RD, CASTLEREAGH NSW 2749","suburb":"","postcode":"","state":"NSW","lat":-33.669343,"lng":150.677263,"prices":{"U95":2.049,"U98":2.109,"PDL":2.399,"U91":1.829}},{"code":"20859","name":"Koorindah Fuel Station","brand":"Independent","address":"46 PRESIDENT WILSON WALK, TANILBA BAY NSW 2319","suburb":"","postcode":"","state":"NSW","lat":-32.73381,"lng":152.001782,"prices":{"DL":2.44,"U98":2.0,"U91":1.8}},{"code":"20844","name":"Ampol Ivanhoe","brand":"Ampol","address":"32 COLUMBUS ST, IVANHOE NSW 2878","suburb":"","postcode":"","state":"NSW","lat":-32.900264,"lng":144.301182,"prices":{"DL":3.499,"U98":3.109,"U91":2.859}},{"code":"20541","name":"TELARAH FUELS","brand":"Independent","address":"TELARAH SERVICE STATION 17 SOUTH ST, TELARAH NSW 2320","suburb":"","postcode":"","state":"NSW","lat":-32.728489,"lng":151.535664,"prices":{"U95":2.044}},{"code":"20124","name":"Ambiex Pty Ltd","brand":"Westside","address":"5 KING ST, GOOLOOGONG NSW 2805","suburb":"","postcode":"","state":"NSW","lat":-33.614471,"lng":148.435011,"prices":{"DL":2.899}},{"code":"20635","name":"Deepwater road house","brand":"Liberty","address":"85 TENTERFIELD ST, DEEPWATER NSW 2371","suburb":"","postcode":"","state":"NSW","lat":-29.439352,"lng":151.846136,"prices":{"DL":2.599,"U95":1.999,"U91":1.899}},{"code":"20862","name":"Linmac Co Pty Ltd","brand":"Linmac Co Pty Ltd","address":"211N PAKINGTON ST, WALCHA NSW 2354","suburb":"","postcode":"","state":"NSW","lat":-30.975649,"lng":151.597143,"prices":{"DL":2.7}},{"code":"20860","name":"Ampol Ivanhoe","brand":"Ampol","address":"60 COLUMBUS ST, IVANHOE NSW 2878","suburb":"","postcode":"","state":"NSW","lat":-32.897397,"lng":144.299074,"prices":{"DL":3.099,"U98":2.869,"U91":2.599}},{"code":"20863","name":"Woodham Petroleum Hexham","brand":"Independent","address":"239A OLD MAITLAND RD, HEXHAM NSW 2322","suburb":"","postcode":"","state":"NSW","lat":-32.829298,"lng":151.686585,"prices":{"DL":2.429}},{"code":"20864","name":"Woodham Petroleum Hillston","brand":"Independent","address":"175-183 COWPER ST, HILLSTON NSW 2675","suburb":"","postcode":"","state":"NSW","lat":-33.491788,"lng":145.537587,"prices":{"DL":2.769}},{"code":"20142","name":"Barriekneal Fuels Pty Ltd","brand":"Independent","address":"37 MORILLA ST, LIGHTNING RIDGE NSW 2834","suburb":"","postcode":"","state":"NSW","lat":-29.427224,"lng":147.97933,"prices":{"DL":2.899,"U91":2.299}},{"code":"20861","name":"Mobil Cobar","brand":"Mobil","address":"SERVICE STATION 56-58 MARSHALL ST, COBAR NSW 2835","suburb":"","postcode":"","state":"NSW","lat":-31.497933,"lng":145.834668,"prices":{"E10":1.895,"U95":2.055,"PDL":2.495,"U91":1.915}},{"code":"20866","name":"Piney Range Roadhouse","brand":"Independent","address":"65 BILLABONG ST, WALBUNDRIE NSW 2642","suburb":"","postcode":"","state":"NSW","lat":-35.690789,"lng":146.721236,"prices":{"U91":2.66}},{"code":"20867","name":"Pearl Energy Dungog","brand":"Pearl Energy","address":"15 CLARENCE TOWN RD, DUNGOG NSW 2420","suburb":"","postcode":"","state":"NSW","lat":-32.410766,"lng":151.751125,"prices":{"U98":2.259,"PDL":2.559,"U91":2.099}},{"code":"20868","name":"Woodhams Brewarrina","brand":"Independent","address":"12 WILSON ST, BREWARRINA NSW 2839","suburb":"","postcode":"","state":"NSW","lat":-29.966781,"lng":146.868386,"prices":{"DL":2.879}},{"code":"20869","name":"Woodham Petroleum Come by Chance","brand":"Independent","address":"16 COLLESS ST, COME BY CHANCE NSW 2832","suburb":"","postcode":"","state":"NSW","lat":-30.364801,"lng":148.484521,"prices":{"DL":2.799}},{"code":"20870","name":"Woodham Petroleum Girilambone","brand":"Independent","address":"10 SYDNEY ST, GIRILAMBONE NSW 2831","suburb":"","postcode":"","state":"NSW","lat":-31.250695,"lng":146.904434,"prices":{"DL":2.759}},{"code":"20871","name":"BOOST FUEL BERMAGUI","brand":"BOOST FUEL BERMAGUI","address":"8 WALLAGA LAKE RD, BERMAGUI NSW 2546","suburb":"","postcode":"","state":"NSW","lat":-36.419998,"lng":150.064291,"prices":{"U98":2.269,"PDL":2.489,"U91":1.939}},{"code":"20874","name":"Mobil Taree","brand":"Mobil","address":"6-8 COWPER ST, TAREE NSW 2430","suburb":"","postcode":"","state":"NSW","lat":-31.899605,"lng":152.484033,"prices":{"E10":1.745,"U95":1.885,"U98":1.965,"PDL":2.295,"U91":1.765}},{"code":"20877","name":"Tottenham Rural Trading Pty Ltd","brand":"Independent","address":"97 UMANG ST, TOTTENHAM NSW 2873","suburb":"","postcode":"","state":"NSW","lat":-32.243804,"lng":147.3574,"prices":{"DL":2.649,"U95":2.329}},{"code":"20873","name":"7-Eleven Bankstown Airport","brand":"7-Eleven","address":"335 HENRY LAWSON DR, BANKSTOWN AERODROME NSW 2200","suburb":"","postcode":"","state":"NSW","lat":-33.927522,"lng":150.98044,"prices":{"E10":1.739,"U95":1.989,"U98":2.079,"PDL":2.359,"U91":1.759}},{"code":"20875","name":"METRO WARILLA","brand":"Metro Fuel","address":"230 SHELLHARBOUR RD, WARILLA NSW 2528","suburb":"","postcode":"","state":"NSW","lat":-34.556988,"lng":150.859245,"prices":{"E10":1.829,"U98":2.049,"PDL":2.329,"U91":1.849}},{"code":"20878","name":"Metro Birrong","brand":"Metro Fuel","address":"158 AUBURN RD Birrong NSW 2143","suburb":"","postcode":"","state":"NSW","lat":-33.89746,"lng":151.02121,"prices":{"E10":1.769,"U95":1.899,"U98":1.999,"PDL":2.449,"U91":1.789}}]}